[{"results": [{"geometry": {"location": {"lng": -70.2, "lat": -14.1}, "viewport": {"northeast": {"lng": -70.1839926, "lat": -14.0891779}, "southwest": {"lng": -70.2160074, "lat": -14.1108216}}, "location_type": "APPROXIMATE"}, "types": ["locality", "political"], "address_components": [{"types": ["locality", "political"], "short_name": "Ajoyani", "long_name": "Ajoyani"}, {"types": ["administrative_area_level_2", "political"], "short_name": "Carabaya", "long_name": "Carabaya"}, {"types": ["administrative_area_level_1", "political"], "short_name": "Puno", "long_name": "Puno"}, {"types": ["country", "political"], "short_name": "PE", "long_name": "Peru"}], "place_id": "ChIJQ_m9zXvjZZERoynRfs5kJvg", "formatted_address": "Ajoyani, Peru"}], "status": "OK"}, {"results": [{"geometry": {"location": {"lng": -70.2, "lat": -14.1}, "viewport": {"northeast": {"lng": -70.1839926, "lat": -14.0891779}, "southwest": {"lng": -70.2160074, "lat": -14.1108216}}, "location_type": "APPROXIMATE"}, "types": ["locality", "political"], "address_components": [{"types": ["locality", "political"], "short_name": "Ajoyani", "long_name": "Ajoyani"}, {"types": ["administrative_area_level_2", "political"], "short_name": "Carabaya", "long_name": "Carabaya"}, {"types": ["administrative_area_level_1", "political"], "short_name": "Puno", "long_name": "Puno"}, {"types": ["country", "political"], "short_name": "PE", "long_name": "Peru"}], "place_id": "ChIJQ_m9zXvjZZERoynRfs5kJvg", "formatted_address": "Ajoyani, Peru"}], "status": "OK"}, {"results": [{"geometry": {"location": {"lng": -70.647842, "lat": -13.88991}, "viewport": {"northeast": {"lng": -70.63183459999999, "lat": -13.879078}, "southwest": {"lng": -70.6638494, "lat": -13.9007415}}, "location_type": "APPROXIMATE"}, "types": ["locality", "political"], "address_components": [{"types": ["locality", "political"], "short_name": "Corani District", "long_name": "Corani District"}, {"types": ["administrative_area_level_2", "political"], "short_name": "Carabaya Province", "long_name": "Carabaya Province"}, {"types": ["administrative_area_level_1", "political"], "short_name": "Puno", "long_name": "Puno"}, {"types": ["country", "political"], "short_name": "PE", "long_name": "Peru"}], "place_id": "ChIJ56gIN-pCb5ERt3XoRe-3B3g", "formatted_address": "Corani District, Peru"}], "status": "OK"}, {"results": [{"geometry": {"location": {"lng": -70.03209690000001, "lat": -14.34538}, "viewport": {"northeast": {"lng": -70.01608949999999, "lat": -14.3345697}, "southwest": {"lng": -70.04810429999999, "lat": -14.3561898}}, "location_type": "APPROXIMATE"}, "types": ["locality", "political"], "address_components": [{"types": ["locality", "political"], "short_name": "Crucero District", "long_name": "Crucero District"}, {"types": ["administrative_area_level_2", "political"], "short_name": "Carabaya Province", "long_name": "Carabaya Province"}, {"types": ["administrative_area_level_1", "political"], "short_name": "Puno", "long_name": "Puno"}, {"types": ["country", "political"], "short_name": "PE", "long_name": "Peru"}], "place_id": "ChIJM2ImMl9tZpERubAQbLlOUgw", "formatted_address": "Crucero District, Peru"}], "status": "OK"}, {"results": [{"geometry": {"location": {"lng": -70.4253389, "lat": -14.072176}, "viewport": {"northeast": {"lng": -70.41420939999999, "lat": -14.0496655}, "southwest": {"lng": -70.4439069, "lat": -14.0830516}}, "bounds": {"northeast": {"lng": -70.41420939999999, "lat": -14.0496655}, "southwest": {"lng": -70.4439069, "lat": -14.0830516}}, "location_type": "APPROXIMATE"}, "types": ["locality", "political"], "address_components": [{"types": ["locality", "political"], "short_name": "Macusani", "long_name": "Macusani"}, {"types": ["administrative_area_level_2", "political"], "short_name": "Carabaya Province", "long_name": "Carabaya Province"}, {"types": ["administrative_area_level_1", "political"], "short_name": "Puno", "long_name": "Puno"}, {"types": ["country", "political"], "short_name": "PE", "long_name": "Peru"}], "place_id": "ChIJg_h10H_4ZZERT8ayFsUD8l8", "formatted_address": "Macusani, Peru"}], "status": "OK"}, {"results": [{"geometry": {"location": {"lng": -69.9661586, "lat": -14.1254679}, "viewport": {"northeast": {"lng": -69.9501512, "lat": -14.114647}, "southwest": {"lng": -69.98216599999999, "lat": -14.1362883}}, "location_type": "APPROXIMATE"}, "types": ["locality", "political"], "address_components": [{"types": ["locality", "political"], "short_name": "Usicayos District", "long_name": "Usicayos District"}, {"types": ["administrative_area_level_2", "political"], "short_name": "Carabaya Province", "long_name": "Carabaya Province"}, {"types": ["administrative_area_level_1", "political"], "short_name": "Puno", "long_name": "Puno"}, {"types": ["country", "political"], "short_name": "PE", "long_name": "Peru"}], "place_id": "ChIJN5qIFhLYZZERu47JRzzXjvY", "formatted_address": "Usicayos District, Peru"}], "status": "OK"}, {"results": [{"geometry": {"location": {"lng": -69.319977, "lat": -16.630951}, "viewport": {"northeast": {"lng": -69.3039696, "lat": -16.6202595}, "southwest": {"lng": -69.3359844, "lat": -16.6416419}}, "location_type": "APPROXIMATE"}, "types": ["locality", "political"], "address_components": [{"types": ["locality", "political"], "short_name": "Huacullani", "long_name": "Huacullani"}, {"types": ["administrative_area_level_2", "political"], "short_name": "Chucuito", "long_name": "Chucuito"}, {"types": ["administrative_area_level_1", "political"], "short_name": "Puno", "long_name": "Puno"}, {"types": ["country", "political"], "short_name": "PE", "long_name": "Peru"}], "place_id": "ChIJITL2ruVqXJERlNG4q94jhPw", "formatted_address": "Huacullani, Peru"}], "status": "OK"}, {"results": [{"geometry": {"location": {"lng": -69.24364059999999, "lat": -16.7053271}, "viewport": {"northeast": {"lng": -69.23398, "lat": -16.6775663}, "southwest": {"lng": -69.2578841, "lat": -16.7500444}}, "bounds": {"northeast": {"lng": -69.23398, "lat": -16.6775663}, "southwest": {"lng": -69.2578841, "lat": -16.7500444}}, "location_type": "APPROXIMATE"}, "types": ["locality", "political"], "address_components": [{"types": ["locality", "political"], "short_name": "Distrito de Kelluyo", "long_name": "Distrito de Kelluyo"}, {"types": ["administrative_area_level_2", "political"], "short_name": "Chucuito", "long_name": "Chucuito"}, {"types": ["administrative_area_level_1", "political"], "short_name": "Puno", "long_name": "Puno"}, {"types": ["country", "political"], "short_name": "PE", "long_name": "Peru"}], "place_id": "ChIJa3ER7vwSXJER0_7fEw-CjPU", "formatted_address": "Distrito de Kelluyo, Peru"}], "status": "OK"}, {"results": [{"geometry": {"location": {"lng": -69.366249, "lat": -16.907391}, "viewport": {"northeast": {"lng": -69.3502416, "lat": -16.896715}, "southwest": {"lng": -69.3822564, "lat": -16.9180664}}, "location_type": "APPROXIMATE"}, "types": ["locality", "political"], "address_components": [{"types": ["locality", "political"], "short_name": "Pisacoma District", "long_name": "Pisacoma District"}, {"types": ["administrative_area_level_2", "political"], "short_name": "Chucuito Province", "long_name": "Chucuito Province"}, {"types": ["administrative_area_level_1", "political"], "short_name": "Puno", "long_name": "Puno"}, {"types": ["country", "political"], "short_name": "PE", "long_name": "Peru"}], "place_id": "ChIJu6P0RDF0XJERSAdxQP2dwf8", "formatted_address": "Pisacoma District, Peru"}], "status": "OK"}, {"results": [{"geometry": {"location": {"lng": -69.1014935, "lat": -16.4981761}, "viewport": {"northeast": {"lng": -69.09267419999999, "lat": -16.4902052}, "southwest": {"lng": -69.1099262, "lat": -16.5073641}}, "bounds": {"northeast": {"lng": -69.09267419999999, "lat": -16.4902052}, "southwest": {"lng": -69.1099262, "lat": -16.5073641}}, "location_type": "APPROXIMATE"}, "types": ["locality", "political"], "address_components": [{"types": ["locality", "political"], "short_name": "Zepita", "long_name": "Zepita"}, {"types": ["administrative_area_level_2", "political"], "short_name": "Chucuito Province", "long_name": "Chucuito Province"}, {"types": ["administrative_area_level_1", "political"], "short_name": "Puno", "long_name": "Puno"}, {"types": ["country", "political"], "short_name": "PE", "long_name": "Peru"}], "place_id": "ChIJPZ4rDbM8XJERqSPFn9xLi_Q", "formatted_address": "Zepita, Peru"}], "status": "OK"}, {"results": [], "status": "ZERO_RESULTS"}, {"results": [{"partial_match": true, "address_components": [{"types": ["establishment", "park", "point_of_interest"], "short_name": "Plaza de Conduriri", "long_name": "Plaza de Conduriri"}, {"types": ["administrative_area_level_2", "political"], "short_name": "El Collao", "long_name": "El Collao"}, {"types": ["administrative_area_level_1", "political"], "short_name": "Puno", "long_name": "Puno"}, {"types": ["country", "political"], "short_name": "PE", "long_name": "Peru"}], "place_id": "ChIJ_5rhuCX1XJER6tnfJ1pV9Qg", "geometry": {"location": {"lng": -69.7091549, "lat": -16.6217471}, "viewport": {"northeast": {"lng": -69.70780591970849, "lat": -16.6203981197085}, "southwest": {"lng": -69.7105038802915, "lat": -16.6230960802915}}, "location_type": "GEOMETRIC_CENTER"}, "types": ["establishment", "park", "point_of_interest"], "formatted_address": "Plaza de Conduriri, Peru"}], "status": "OK"}, {"results": [{"geometry": {"location": {"lng": -69.6384724, "lat": -16.0825395}, "viewport": {"northeast": {"lng": -69.6217346, "lat": -16.068826}, "southwest": {"lng": -69.6542644, "lat": -16.0993401}}, "bounds": {"northeast": {"lng": -69.6217346, "lat": -16.068826}, "southwest": {"lng": -69.6542644, "lat": -16.0993401}}, "location_type": "APPROXIMATE"}, "types": ["locality", "political"], "address_components": [{"types": ["locality", "political"], "short_name": "Ilave District", "long_name": "Ilave District"}, {"types": ["administrative_area_level_2", "political"], "short_name": "El Collao Province", "long_name": "El Collao Province"}, {"types": ["administrative_area_level_1", "political"], "short_name": "Puno", "long_name": "Puno"}, {"types": ["country", "political"], "short_name": "PE", "long_name": "Peru"}], "place_id": "ChIJzewY6denXZER7SRmqbXDnFQ", "formatted_address": "Ilave District, Peru"}], "status": "OK"}, {"results": [{"geometry": {"location": {"lng": -69.85, "lat": -16.766667}, "viewport": {"northeast": {"lng": -69.8339926, "lat": -16.7559831}, "southwest": {"lng": -69.8660074, "lat": -16.7773503}}, "location_type": "APPROXIMATE"}, "types": ["locality", "political"], "address_components": [{"types": ["locality", "political"], "short_name": "Santa Rosa", "long_name": "Santa Rosa"}, {"types": ["administrative_area_level_2", "political"], "short_name": "El Collao", "long_name": "El Collao"}, {"types": ["administrative_area_level_1", "political"], "short_name": "Puno", "long_name": "Puno"}, {"types": ["country", "political"], "short_name": "PE", "long_name": "Peru"}], "place_id": "ChIJ95y4ZCOOXJERJLm1RFd0PPc", "formatted_address": "Santa Rosa, Peru"}], "status": "OK"}, {"results": [{"geometry": {"location": {"lng": -69.3667194, "lat": -15.0139992}, "viewport": {"northeast": {"lng": -69.36133199999999, "lat": -15.0086085}, "southwest": {"lng": -69.3692482, "lat": -15.0213532}}, "bounds": {"northeast": {"lng": -69.36133199999999, "lat": -15.0086085}, "southwest": {"lng": -69.3692482, "lat": -15.0213532}}, "location_type": "APPROXIMATE"}, "types": ["locality", "political"], "address_components": [{"types": ["locality", "political"], "short_name": "Cojata", "long_name": "Cojata"}, {"types": ["administrative_area_level_2", "political"], "short_name": "Huancan\u00e9 Province", "long_name": "Huancan\u00e9 Province"}, {"types": ["administrative_area_level_1", "political"], "short_name": "Puno", "long_name": "Puno"}, {"types": ["country", "political"], "short_name": "PE", "long_name": "Peru"}], "place_id": "ChIJo7WrXjkXZ5ERshdgeKhfQkY", "formatted_address": "Cojata, Peru"}], "status": "OK"}, {"results": [{"geometry": {"location": {"lng": -69.8024099, "lat": -15.0553205}, "viewport": {"northeast": {"lng": -69.800005, "lat": -15.0480047}, "southwest": {"lng": -69.8055839, "lat": -15.0612247}}, "bounds": {"northeast": {"lng": -69.800005, "lat": -15.0480047}, "southwest": {"lng": -69.8055839, "lat": -15.0612247}}, "location_type": "APPROXIMATE"}, "types": ["locality", "political"], "address_components": [{"types": ["locality", "political"], "short_name": "Huatasani", "long_name": "Huatasani"}, {"types": ["administrative_area_level_2", "political"], "short_name": "Huancane", "long_name": "Huancane"}, {"types": ["administrative_area_level_1", "political"], "short_name": "Puno", "long_name": "Puno"}, {"types": ["country", "political"], "short_name": "PE", "long_name": "Peru"}], "place_id": "ChIJd2lqwJClZ5ER_NCV-dDRz50", "formatted_address": "Huatasani, Peru"}], "status": "OK"}, {"results": [{"geometry": {"location": {"lng": -69.68311299999999, "lat": -15.00646}, "viewport": {"northeast": {"lng": -69.6671056, "lat": -14.9956823}, "southwest": {"lng": -69.6991204, "lat": -15.0172372}}, "location_type": "APPROXIMATE"}, "types": ["locality", "political"], "address_components": [{"types": ["locality", "political"], "short_name": "Inchupalla", "long_name": "Inchupalla"}, {"types": ["administrative_area_level_2", "political"], "short_name": "Huancane", "long_name": "Huancane"}, {"types": ["administrative_area_level_1", "political"], "short_name": "Puno", "long_name": "Puno"}, {"types": ["country", "political"], "short_name": "PE", "long_name": "Peru"}], "place_id": "ChIJ2TpkzhCoZ5ERlHkuZSyygTk", "formatted_address": "Inchupalla, Peru"}], "status": "OK"}, {"results": [{"geometry": {"location": {"lng": -69.92897839999999, "lat": -15.4419436}, "viewport": {"northeast": {"lng": -69.9264979, "lat": -15.4401952}, "southwest": {"lng": -69.93134739999999, "lat": -15.4444559}}, "bounds": {"northeast": {"lng": -69.9264979, "lat": -15.4401952}, "southwest": {"lng": -69.93134739999999, "lat": -15.4444559}}, "location_type": "APPROXIMATE"}, "types": ["locality", "political"], "address_components": [{"types": ["locality", "political"], "short_name": "Pusi District", "long_name": "Pusi District"}, {"types": ["administrative_area_level_2", "political"], "short_name": "Huancan\u00e9 Province", "long_name": "Huancan\u00e9 Province"}, {"types": ["administrative_area_level_1", "political"], "short_name": "Puno", "long_name": "Puno"}, {"types": ["country", "political"], "short_name": "PE", "long_name": "Peru"}], "place_id": "ChIJ55FZYWKOZ5ERX8531mgScC0", "formatted_address": "Pusi District, Peru"}], "status": "OK"}, {"results": [{"geometry": {"location": {"lng": -69.52763399999999, "lat": -15.24014}, "viewport": {"northeast": {"lng": -69.5116266, "lat": -15.2293741}, "southwest": {"lng": -69.5436414, "lat": -15.2509053}}, "location_type": "APPROXIMATE"}, "types": ["locality", "political"], "address_components": [{"types": ["locality", "political"], "short_name": "Rosaspata", "long_name": "Rosaspata"}, {"types": ["administrative_area_level_2", "political"], "short_name": "Huancane", "long_name": "Huancane"}, {"types": ["administrative_area_level_1", "political"], "short_name": "Puno", "long_name": "Puno"}, {"types": ["country", "political"], "short_name": "PE", "long_name": "Peru"}], "place_id": "ChIJUa30Fa1zZ5ER9rAnBo-OzWM", "formatted_address": "Rosaspata, Peru"}], "status": "OK"}, {"results": [{"geometry": {"location": {"lng": -69.6892254, "lat": -15.2159658}, "viewport": {"northeast": {"lng": -69.6851635, "lat": -15.2121827}, "southwest": {"lng": -69.691515, "lat": -15.2182701}}, "bounds": {"northeast": {"lng": -69.6851635, "lat": -15.2121827}, "southwest": {"lng": -69.691515, "lat": -15.2182701}}, "location_type": "APPROXIMATE"}, "types": ["locality", "political"], "address_components": [{"types": ["locality", "political"], "short_name": "Vilque Chico District", "long_name": "Vilque Chico District"}, {"types": ["administrative_area_level_2", "political"], "short_name": "Huancan\u00e9 Province", "long_name": "Huancan\u00e9 Province"}, {"types": ["administrative_area_level_1", "political"], "short_name": "Puno", "long_name": "Puno"}, {"types": ["country", "political"], "short_name": "PE", "long_name": "Peru"}], "place_id": "ChIJv3xwPZOfZ5ERzkvUtmSXzco", "formatted_address": "Vilque Chico District, Peru"}], "status": "OK"}, {"results": [{"geometry": {"location": {"lng": -70.224693, "lat": -15.31982}, "viewport": {"northeast": {"lng": -70.2086856, "lat": -15.3090582}, "southwest": {"lng": -70.2407004, "lat": -15.3305812}}, "location_type": "APPROXIMATE"}, "types": ["locality", "political"], "address_components": [{"types": ["locality", "political"], "short_name": "Calapuja District", "long_name": "Calapuja District"}, {"types": ["administrative_area_level_2", "political"], "short_name": "Lampa Province", "long_name": "Lampa Province"}, {"types": ["administrative_area_level_1", "political"], "short_name": "Puno", "long_name": "Puno"}, {"types": ["country", "political"], "short_name": "PE", "long_name": "Peru"}], "place_id": "ChIJPVqvub3oZ5ERmyz5GXiSy-c", "formatted_address": "Calapuja District, Peru"}], "status": "OK"}, {"results": [{"geometry": {"location": {"lng": -70.3628516, "lat": -15.3612378}, "viewport": {"northeast": {"lng": -70.3585911, "lat": -15.3538041}, "southwest": {"lng": -70.3708649, "lat": -15.3711016}}, "bounds": {"northeast": {"lng": -70.3585911, "lat": -15.3538041}, "southwest": {"lng": -70.3708649, "lat": -15.3711016}}, "location_type": "APPROXIMATE"}, "types": ["locality", "political"], "address_components": [{"types": ["locality", "political"], "short_name": "Lampa", "long_name": "Lampa"}, {"types": ["administrative_area_level_2", "political"], "short_name": "Lampa Province", "long_name": "Lampa Province"}, {"types": ["administrative_area_level_1", "political"], "short_name": "Puno", "long_name": "Puno"}, {"types": ["country", "political"], "short_name": "PE", "long_name": "Peru"}], "place_id": "ChIJB5e1rMfjZ5ERUO0P9f_m3rs", "formatted_address": "Lampa, Peru"}], "status": "OK"}, {"results": [{"geometry": {"location": {"lng": -70.265129, "lat": -15.24381}, "viewport": {"northeast": {"lng": -70.2491216, "lat": -15.2330443}, "southwest": {"lng": -70.2811364, "lat": -15.2545751}}, "location_type": "APPROXIMATE"}, "types": ["locality", "political"], "address_components": [{"types": ["locality", "political"], "short_name": "Nicasio District", "long_name": "Nicasio District"}, {"types": ["administrative_area_level_2", "political"], "short_name": "Lampa Province", "long_name": "Lampa Province"}, {"types": ["administrative_area_level_1", "political"], "short_name": "Puno", "long_name": "Puno"}, {"types": ["country", "political"], "short_name": "PE", "long_name": "Peru"}], "place_id": "ChIJlw---2fdZ5ERHxOIHPXl49o", "formatted_address": "Nicasio District, Peru"}], "status": "OK"}, {"results": [{"geometry": {"location": {"lng": -70.929367, "lat": -15.12142}, "viewport": {"northeast": {"lng": -70.91335959999999, "lat": -15.1106481}, "southwest": {"lng": -70.94537439999999, "lat": -15.1321914}}, "location_type": "APPROXIMATE"}, "types": ["locality", "political"], "address_components": [{"types": ["locality", "political"], "short_name": "Ocuviri", "long_name": "Ocuviri"}, {"types": ["administrative_area_level_2", "political"], "short_name": "Lampa", "long_name": "Lampa"}, {"types": ["administrative_area_level_1", "political"], "short_name": "Puno", "long_name": "Puno"}, {"types": ["country", "political"], "short_name": "PE", "long_name": "Peru"}], "place_id": "ChIJd7C8okdbaJERck6PkuLFYQQ", "formatted_address": "Ocuviri, Peru"}], "status": "OK"}, {"results": [{"partial_match": true, "address_components": [{"types": ["route"], "short_name": "Carr Lampa-Palca", "long_name": "Carretera Lampa-Palca"}, {"types": ["locality", "political"], "short_name": "Lampa", "long_name": "Lampa"}, {"types": ["administrative_area_level_2", "political"], "short_name": "Lampa", "long_name": "Lampa"}, {"types": ["administrative_area_level_1", "political"], "short_name": "Puno", "long_name": "Puno"}, {"types": ["country", "political"], "short_name": "PE", "long_name": "Peru"}], "place_id": "Eh5DYXJyIExhbXBhLVBhbGNhLCBMYW1wYSwgUGVyw7o", "geometry": {"location": {"lng": -70.3857788, "lat": -15.3536556}, "viewport": {"northeast": {"lng": -70.3701499, "lat": -15.3378293}, "southwest": {"lng": -70.39536950000002, "lat": -15.362595}}, "bounds": {"northeast": {"lng": -70.3701499, "lat": -15.3378293}, "southwest": {"lng": -70.39536950000002, "lat": -15.362595}}, "location_type": "GEOMETRIC_CENTER"}, "types": ["route"], "formatted_address": "Carr Lampa-Palca, Lampa, Peru"}], "status": "OK"}, {"results": [{"geometry": {"location": {"lng": -70.609261, "lat": -15.46557}, "viewport": {"northeast": {"lng": -70.5932536, "lat": -15.4548158}, "southwest": {"lng": -70.6252684, "lat": -15.4763237}}, "location_type": "APPROXIMATE"}, "types": ["locality", "political"], "address_components": [{"types": ["locality", "political"], "short_name": "Paratia District", "long_name": "Paratia District"}, {"types": ["administrative_area_level_2", "political"], "short_name": "Lampa Province", "long_name": "Lampa Province"}, {"types": ["administrative_area_level_1", "political"], "short_name": "Puno", "long_name": "Puno"}, {"types": ["country", "political"], "short_name": "PE", "long_name": "Peru"}], "place_id": "ChIJZYQZG1gFaJERXVfpLG66ubo", "formatted_address": "Paratia District, Peru"}], "status": "OK"}, {"results": [{"geometry": {"location": {"lng": -70.677307, "lat": -15.19755}, "viewport": {"northeast": {"lng": -70.66129959999999, "lat": -15.186782}, "southwest": {"lng": -70.69331439999999, "lat": -15.2083175}}, "location_type": "APPROXIMATE"}, "types": ["locality", "political"], "address_components": [{"types": ["locality", "political"], "short_name": "Vilavilla", "long_name": "Vilavilla"}, {"types": ["administrative_area_level_2", "political"], "short_name": "Lampa", "long_name": "Lampa"}, {"types": ["administrative_area_level_1", "political"], "short_name": "Puno", "long_name": "Puno"}, {"types": ["country", "political"], "short_name": "PE", "long_name": "Peru"}], "place_id": "ChIJNa_EkINuaJERswPFbwE0Kiw", "formatted_address": "Vilavilla, Peru"}], "status": "OK"}, {"results": [{"geometry": {"location": {"lng": -70.36666699999999, "lat": -14.4}, "viewport": {"northeast": {"lng": -70.3506596, "lat": -14.3891923}, "southwest": {"lng": -70.3826744, "lat": -14.4108072}}, "location_type": "APPROXIMATE"}, "types": ["locality", "political"], "address_components": [{"types": ["locality", "political"], "short_name": "Antauta", "long_name": "Antauta"}, {"types": ["administrative_area_level_2", "political"], "short_name": "Melgar", "long_name": "Melgar"}, {"types": ["administrative_area_level_1", "political"], "short_name": "Puno", "long_name": "Puno"}, {"types": ["country", "political"], "short_name": "PE", "long_name": "Peru"}], "place_id": "ChIJ8VcNTekcZpERYV4WXJGHAcU", "formatted_address": "Antauta, Peru"}], "status": "OK"}, {"results": [{"geometry": {"location": {"lng": -70.5889612, "lat": -14.8842942}, "viewport": {"northeast": {"lng": -70.578146, "lat": -14.868727}, "southwest": {"lng": -70.60569749999999, "lat": -14.9003313}}, "bounds": {"northeast": {"lng": -70.578146, "lat": -14.868727}, "southwest": {"lng": -70.60569749999999, "lat": -14.9003313}}, "location_type": "APPROXIMATE"}, "types": ["locality", "political"], "address_components": [{"types": ["locality", "political"], "short_name": "Ayaviri", "long_name": "Ayaviri"}, {"types": ["administrative_area_level_2", "political"], "short_name": "Melgar Province", "long_name": "Melgar Province"}, {"types": ["administrative_area_level_1", "political"], "short_name": "Puno", "long_name": "Puno"}, {"types": ["country", "political"], "short_name": "PE", "long_name": "Peru"}], "place_id": "ChIJo-1h8rWHaJERbqu6RWQQ_EQ", "formatted_address": "Ayaviri, Peru"}], "status": "OK"}, {"results": [{"geometry": {"location": {"lng": -70.8669938, "lat": -14.904254}, "viewport": {"northeast": {"lng": -70.86143020000002, "lat": -14.901088}, "southwest": {"lng": -70.8713865, "lat": -14.9071533}}, "bounds": {"northeast": {"lng": -70.86143020000002, "lat": -14.901088}, "southwest": {"lng": -70.8713865, "lat": -14.9071533}}, "location_type": "APPROXIMATE"}, "types": ["locality", "political"], "address_components": [{"types": ["locality", "political"], "short_name": "Cupi", "long_name": "Cupi"}, {"types": ["administrative_area_level_2", "political"], "short_name": "Melgar", "long_name": "Melgar"}, {"types": ["administrative_area_level_1", "political"], "short_name": "Puno", "long_name": "Puno"}, {"types": ["country", "political"], "short_name": "PE", "long_name": "Peru"}], "place_id": "ChIJD0PCQlP0aJERT7snRwVR0EE", "formatted_address": "Cupi, Peru"}], "status": "OK"}, {"results": [{"geometry": {"location": {"lng": -70.87962759999999, "lat": -14.9479605}, "viewport": {"northeast": {"lng": -70.8754206, "lat": -14.9423385}, "southwest": {"lng": -70.8850765, "lat": -14.9516262}}, "bounds": {"northeast": {"lng": -70.8754206, "lat": -14.9423385}, "southwest": {"lng": -70.8850765, "lat": -14.9516262}}, "location_type": "APPROXIMATE"}, "types": ["locality", "political"], "address_components": [{"types": ["locality", "political"], "short_name": "Llalli District", "long_name": "Llalli District"}, {"types": ["administrative_area_level_2", "political"], "short_name": "Melgar Province", "long_name": "Melgar Province"}, {"types": ["administrative_area_level_1", "political"], "short_name": "Puno", "long_name": "Puno"}, {"types": ["country", "political"], "short_name": "PE", "long_name": "Peru"}], "place_id": "ChIJnR7koIv1aJERyac9PtzdklQ", "formatted_address": "Llalli District, Peru"}], "status": "OK"}, {"results": [{"geometry": {"location": {"lng": -70.52284999999999, "lat": -14.72796}, "viewport": {"northeast": {"lng": -70.5068426, "lat": -14.7171684}, "southwest": {"lng": -70.5388574, "lat": -14.7387511}}, "location_type": "APPROXIMATE"}, "types": ["locality", "political"], "address_components": [{"types": ["locality", "political"], "short_name": "Orurillo", "long_name": "Orurillo"}, {"types": ["administrative_area_level_2", "political"], "short_name": "Melgar", "long_name": "Melgar"}, {"types": ["administrative_area_level_1", "political"], "short_name": "Puno", "long_name": "Puno"}, {"types": ["country", "political"], "short_name": "PE", "long_name": "Peru"}], "place_id": "ChIJQccL-KacaJERFAkU41T4_pc", "formatted_address": "Orurillo, Peru"}], "status": "OK"}, {"results": [{"geometry": {"location": {"lng": -70.791023, "lat": -14.61148}, "viewport": {"northeast": {"lng": -70.7750156, "lat": -14.6006826}, "southwest": {"lng": -70.8070304, "lat": -14.6222769}}, "location_type": "APPROXIMATE"}, "types": ["locality", "political"], "address_components": [{"types": ["locality", "political"], "short_name": "Santa Rosa", "long_name": "Santa Rosa"}, {"types": ["administrative_area_level_2", "political"], "short_name": "Melgar", "long_name": "Melgar"}, {"types": ["administrative_area_level_1", "political"], "short_name": "Puno", "long_name": "Puno"}, {"types": ["country", "political"], "short_name": "PE", "long_name": "Peru"}], "place_id": "ChIJGQ1Oqj-VaJERgNDlif2uOLQ", "formatted_address": "Santa Rosa, Peru"}], "status": "OK"}, {"results": [{"geometry": {"location": {"lng": -70.7540166, "lat": -14.852605}, "viewport": {"northeast": {"lng": -70.7424474, "lat": -14.8477171}, "southwest": {"lng": -70.7584763, "lat": -14.8587304}}, "bounds": {"northeast": {"lng": -70.7424474, "lat": -14.8477171}, "southwest": {"lng": -70.7584763, "lat": -14.8587304}}, "location_type": "APPROXIMATE"}, "types": ["locality", "political"], "address_components": [{"types": ["locality", "political"], "short_name": "Humachiri", "long_name": "Humachiri"}, {"types": ["administrative_area_level_2", "political"], "short_name": "Melgar", "long_name": "Melgar"}, {"types": ["administrative_area_level_1", "political"], "short_name": "Puno", "long_name": "Puno"}, {"types": ["country", "political"], "short_name": "PE", "long_name": "Peru"}], "place_id": "ChIJ3ZrXEoiLaJERMV5w7Xw5Pkg", "formatted_address": "Humachiri, Peru"}], "status": "OK"}, {"results": [], "status": "ZERO_RESULTS"}, {"results": [{"geometry": {"location": {"lng": -69.7331607, "lat": -14.8925425}, "viewport": {"northeast": {"lng": -69.7255696, "lat": -14.8877715}, "southwest": {"lng": -69.7390234, "lat": -14.9003379}}, "bounds": {"northeast": {"lng": -69.7255696, "lat": -14.8877715}, "southwest": {"lng": -69.7390234, "lat": -14.9003379}}, "location_type": "APPROXIMATE"}, "types": ["locality", "political"], "address_components": [{"types": ["locality", "political"], "short_name": "Quilcapuncu", "long_name": "Quilcapuncu"}, {"types": ["administrative_area_level_2", "political"], "short_name": "San Antonio de Putina", "long_name": "San Antonio de Putina"}, {"types": ["administrative_area_level_1", "political"], "short_name": "Puno", "long_name": "Puno"}, {"types": ["country", "political"], "short_name": "PE", "long_name": "Peru"}], "place_id": "ChIJ-3Rk2AmrZ5ERIxSiCXsjvO8", "formatted_address": "Quilcapuncu, Peru"}], "status": "OK"}, {"results": [{"geometry": {"location": {"lng": -72.875917, "lat": -13.8791041}, "viewport": {"northeast": {"lng": -72.8707373, "lat": -13.8758922}, "southwest": {"lng": -72.8797925, "lat": -13.8821624}}, "bounds": {"northeast": {"lng": -72.8707373, "lat": -13.8758922}, "southwest": {"lng": -72.8797925, "lat": -13.8821624}}, "location_type": "APPROXIMATE"}, "types": ["locality", "political"], "address_components": [{"types": ["locality", "political"], "short_name": "Circa District", "long_name": "Circa District"}, {"types": ["administrative_area_level_2", "political"], "short_name": "Abancay Province", "long_name": "Abancay Province"}, {"types": ["administrative_area_level_1", "political"], "short_name": "Apurimac", "long_name": "Apurimac"}, {"types": ["country", "political"], "short_name": "PE", "long_name": "Peru"}], "place_id": "ChIJI612pybwbJERinm0r3MOAfg", "formatted_address": "Circa District, Peru"}], "status": "OK"}, {"results": [{"geometry": {"location": {"lng": -72.7697594, "lat": -13.8706341}, "viewport": {"northeast": {"lng": -72.75375199999999, "lat": -13.8598012}, "southwest": {"lng": -72.78576679999999, "lat": -13.8814665}}, "location_type": "APPROXIMATE"}, "types": ["locality", "political"], "address_components": [{"types": ["locality", "political"], "short_name": "Lambrama District", "long_name": "Lambrama District"}, {"types": ["administrative_area_level_2", "political"], "short_name": "Abancay Province", "long_name": "Abancay Province"}, {"types": ["administrative_area_level_1", "political"], "short_name": "Apurimac", "long_name": "Apurimac"}, {"types": ["country", "political"], "short_name": "PE", "long_name": "Peru"}], "place_id": "ChIJ8yUZwWr3bJERGU7eCuZ4WRY", "formatted_address": "Lambrama District, Peru"}], "status": "OK"}, {"results": [{"geometry": {"location": {"lng": -72.8778527, "lat": -14.3651534}, "viewport": {"northeast": {"lng": -72.8618453, "lat": -14.354344}, "southwest": {"lng": -72.8938601, "lat": -14.3759623}}, "location_type": "APPROXIMATE"}, "types": ["locality", "political"], "address_components": [{"types": ["locality", "political"], "short_name": "Antabamba", "long_name": "Antabamba"}, {"types": ["administrative_area_level_2", "political"], "short_name": "Antabamba Province", "long_name": "Antabamba Province"}, {"types": ["administrative_area_level_1", "political"], "short_name": "Apurimac", "long_name": "Apurimac"}, {"types": ["country", "political"], "short_name": "PE", "long_name": "Peru"}], "place_id": "ChIJySbH6reCbJERknaWj26tRaQ", "formatted_address": "Antabamba, Peru"}], "status": "OK"}, {"results": [], "status": "ZERO_RESULTS"}, {"results": [{"partial_match": true, "address_components": [{"types": ["country", "political"], "short_name": "PE", "long_name": "Peru"}, {"types": ["administrative_area_level_2", "political"], "short_name": "Antabamba", "long_name": "Antabamba"}, {"types": ["administrative_area_level_1", "political"], "short_name": "Apur\u00edmac", "long_name": "Apur\u00edmac"}], "place_id": "ChIJM_u8wDV6bJERjlfIaMbd3m8", "geometry": {"location": {"lng": -72.5633132, "lat": -14.2603902}, "viewport": {"northeast": {"lng": -72.56196421970849, "lat": -14.2590412197085}, "southwest": {"lng": -72.5646621802915, "lat": -14.2617391802915}}, "location_type": "GEOMETRIC_CENTER"}, "types": ["establishment", "point_of_interest", "police"], "formatted_address": "PLAZA DE ARMAS S/N - COSTADO DE LA IGLESIA, Peru"}], "status": "OK"}, {"results": [{"geometry": {"location": {"lng": -72.9516979, "lat": -14.32663}, "viewport": {"northeast": {"lng": -72.9356905, "lat": -14.3158188}, "southwest": {"lng": -72.96770529999999, "lat": -14.3374407}}, "location_type": "APPROXIMATE"}, "types": ["neighborhood", "political"], "address_components": [{"types": ["neighborhood", "political"], "short_name": "Sabaino", "long_name": "Sabaino"}, {"types": ["locality", "political"], "short_name": "ANTILLA", "long_name": "ANTILLA"}, {"types": ["administrative_area_level_2", "political"], "short_name": "Antabamba", "long_name": "Antabamba"}, {"types": ["administrative_area_level_1", "political"], "short_name": "Apur\u00edmac", "long_name": "Apur\u00edmac"}, {"types": ["country", "political"], "short_name": "PE", "long_name": "Peru"}], "place_id": "ChIJIX_0_mOcbJERtL-fPb6iP90", "formatted_address": "Sabaino, ANTILLA, Peru"}], "status": "OK"}, {"results": [{"geometry": {"location": {"lng": -72.2475967, "lat": -14.1187849}, "viewport": {"northeast": {"lng": -72.2418345, "lat": -14.111272}, "southwest": {"lng": -72.2622942, "lat": -14.1245276}}, "bounds": {"northeast": {"lng": -72.2418345, "lat": -14.111272}, "southwest": {"lng": -72.2622942, "lat": -14.1245276}}, "location_type": "APPROXIMATE"}, "types": ["locality", "political"], "address_components": [{"types": ["locality", "political"], "short_name": "Challhuahuacho District", "long_name": "Challhuahuacho District"}, {"types": ["administrative_area_level_2", "political"], "short_name": "Cotabambas Province", "long_name": "Cotabambas Province"}, {"types": ["administrative_area_level_1", "political"], "short_name": "Apurimac", "long_name": "Apurimac"}, {"types": ["country", "political"], "short_name": "PE", "long_name": "Peru"}], "place_id": "ChIJ1d-wJNITbJERajpXzF4ImCE", "formatted_address": "Challhuahuacho District, Peru"}], "status": "OK"}, {"results": [{"geometry": {"location": {"lng": -72.19461799999999, "lat": -14.2234}, "viewport": {"northeast": {"lng": -72.1786106, "lat": -14.2125838}, "southwest": {"lng": -72.2106254, "lat": -14.2342157}}, "location_type": "APPROXIMATE"}, "types": ["locality", "political"], "address_components": [{"types": ["locality", "political"], "short_name": "Haquira District", "long_name": "Haquira District"}, {"types": ["administrative_area_level_2", "political"], "short_name": "Cotabambas Province", "long_name": "Cotabambas Province"}, {"types": ["administrative_area_level_1", "political"], "short_name": "Apurimac", "long_name": "Apurimac"}, {"types": ["country", "political"], "short_name": "PE", "long_name": "Peru"}], "place_id": "ChIJ80VbieMObJERS_bevrLl5iY", "formatted_address": "Haquira District, Peru"}], "status": "OK"}, {"results": [{"geometry": {"location": {"lng": -72.108879, "lat": -14.10047}, "viewport": {"northeast": {"lng": -72.0928716, "lat": -14.0896479}, "southwest": {"lng": -72.1248864, "lat": -14.1112915}}, "location_type": "APPROXIMATE"}, "types": ["locality", "political"], "address_components": [{"types": ["locality", "political"], "short_name": "Mara District", "long_name": "Mara District"}, {"types": ["administrative_area_level_2", "political"], "short_name": "Cotabambas Province", "long_name": "Cotabambas Province"}, {"types": ["administrative_area_level_1", "political"], "short_name": "Apurimac", "long_name": "Apurimac"}, {"types": ["country", "political"], "short_name": "PE", "long_name": "Peru"}], "place_id": "ChIJr9nOJ0UabJER1vRxhCPrr1Y", "formatted_address": "Mara District, Peru"}], "status": "OK"}, {"results": [{"geometry": {"location": {"lng": -71.9390226, "lat": -15.5771262}, "viewport": {"northeast": {"lng": -71.9376989197085, "lat": -15.5761295697085}, "southwest": {"lng": -71.9403968802915, "lat": -15.5788275302915}}, "bounds": {"northeast": {"lng": -71.93778999999999, "lat": -15.5763133}, "southwest": {"lng": -71.94030579999999, "lat": -15.5786438}}, "location_type": "APPROXIMATE"}, "types": ["locality", "political"], "address_components": [{"types": ["locality", "political"], "short_name": "Tapay", "long_name": "Tapay"}, {"types": ["administrative_area_level_2", "political"], "short_name": "Caylloma", "long_name": "Caylloma"}, {"types": ["administrative_area_level_1", "political"], "short_name": "Arequipa", "long_name": "Arequipa"}, {"types": ["country", "political"], "short_name": "PE", "long_name": "Peru"}], "place_id": "ChIJdzuztfj3aZERUwSsEsJxbuY", "formatted_address": "Tapay, Peru"}], "status": "OK"}, {"results": [{"geometry": {"location": {"lng": -71.65843579999999, "lat": -15.6501}, "viewport": {"northeast": {"lng": -71.6523601, "lat": -15.6458497}, "southwest": {"lng": -71.6627884, "lat": -15.6537012}}, "bounds": {"northeast": {"lng": -71.6523601, "lat": -15.6458497}, "southwest": {"lng": -71.6627884, "lat": -15.6537012}}, "location_type": "APPROXIMATE"}, "types": ["locality", "political"], "address_components": [{"types": ["locality", "political"], "short_name": "Yanque", "long_name": "Yanque"}, {"types": ["administrative_area_level_2", "political"], "short_name": "Caylloma", "long_name": "Caylloma"}, {"types": ["administrative_area_level_1", "political"], "short_name": "Arequipa", "long_name": "Arequipa"}, {"types": ["country", "political"], "short_name": "PE", "long_name": "Peru"}], "place_id": "ChIJVTQ0q1PhaZERtqrriI7DDVQ", "formatted_address": "Yanque, Peru"}], "status": "OK"}, {"results": [{"geometry": {"location": {"lng": -71.68698739999999, "lat": -15.6500913}, "viewport": {"northeast": {"lng": -71.68463229999999, "lat": -15.6488664}, "southwest": {"lng": -71.6894389, "lat": -15.6519658}}, "bounds": {"northeast": {"lng": -71.68463229999999, "lat": -15.6488664}, "southwest": {"lng": -71.6894389, "lat": -15.6519658}}, "location_type": "APPROXIMATE"}, "types": ["locality", "political"], "address_components": [{"types": ["locality", "political"], "short_name": "Ichupampa", "long_name": "Ichupampa"}, {"types": ["administrative_area_level_2", "political"], "short_name": "Caylloma", "long_name": "Caylloma"}, {"types": ["administrative_area_level_1", "political"], "short_name": "Arequipa", "long_name": "Arequipa"}, {"types": ["country", "political"], "short_name": "PE", "long_name": "Peru"}], "place_id": "ChIJtS4bjvXjaZER35Y8qnhA6U0", "formatted_address": "Ichupampa, Peru"}], "status": "OK"}, {"results": [{"geometry": {"location": {"lng": -71.7689206, "lat": -15.6208297}, "viewport": {"northeast": {"lng": -71.7657852, "lat": -15.617664}, "southwest": {"lng": -71.7730808, "lat": -15.6251446}}, "bounds": {"northeast": {"lng": -71.7657852, "lat": -15.617664}, "southwest": {"lng": -71.7730808, "lat": -15.6251446}}, "location_type": "APPROXIMATE"}, "types": ["locality", "political"], "address_components": [{"types": ["locality", "political"], "short_name": "Lari", "long_name": "Lari"}, {"types": ["administrative_area_level_2", "political"], "short_name": "Caylloma", "long_name": "Caylloma"}, {"types": ["administrative_area_level_1", "political"], "short_name": "Arequipa", "long_name": "Arequipa"}, {"types": ["country", "political"], "short_name": "PE", "long_name": "Peru"}], "place_id": "ChIJo23o-zr7aZERg275Hmw403M", "formatted_address": "Lari, Peru"}], "status": "OK"}, {"results": [{"geometry": {"location": {"lng": -71.105278, "lat": -15.928889}, "viewport": {"northeast": {"lng": -71.08927059999999, "lat": -15.9181592}, "southwest": {"lng": -71.12128539999999, "lat": -15.9396183}}, "location_type": "APPROXIMATE"}, "types": ["locality", "political"], "address_components": [{"types": ["locality", "political"], "short_name": "San Antonio de Chuca District", "long_name": "San Antonio de Chuca District"}, {"types": ["administrative_area_level_2", "political"], "short_name": "Caylloma Province", "long_name": "Caylloma Province"}, {"types": ["administrative_area_level_1", "political"], "short_name": "Arequipa", "long_name": "Arequipa"}, {"types": ["country", "political"], "short_name": "PE", "long_name": "Peru"}], "place_id": "ChIJk9IGETGJQpER3Aeidw3JrOg", "formatted_address": "San Antonio de Chuca District, Peru"}], "status": "OK"}, {"results": [{"geometry": {"location": {"lng": -71.46597299999999, "lat": -15.49357}, "viewport": {"northeast": {"lng": -71.4499656, "lat": -15.4828172}, "southwest": {"lng": -71.4819804, "lat": -15.5043222}}, "location_type": "APPROXIMATE"}, "types": ["neighborhood", "political"], "address_components": [{"types": ["neighborhood", "political"], "short_name": "Sibayo", "long_name": "Sibayo"}, {"types": ["administrative_area_level_2", "political"], "short_name": "Caylloma", "long_name": "Caylloma"}, {"types": ["administrative_area_level_1", "political"], "short_name": "Arequipa", "long_name": "Arequipa"}, {"types": ["country", "political"], "short_name": "PE", "long_name": "Peru"}], "place_id": "ChIJW_SNMX3EaZERGo7gd1DP9rw", "formatted_address": "Sibayo, Peru"}], "status": "OK"}, {"results": [{"geometry": {"location": {"lng": -71.44292329999999, "lat": -15.5072929}, "viewport": {"northeast": {"lng": -71.4345191, "lat": -15.5045669}, "southwest": {"lng": -71.4491826, "lat": -15.5100668}}, "bounds": {"northeast": {"lng": -71.4345191, "lat": -15.5045669}, "southwest": {"lng": -71.4491826, "lat": -15.5100668}}, "location_type": "APPROXIMATE"}, "types": ["locality", "political"], "address_components": [{"types": ["locality", "political"], "short_name": "Distrito de Callalli", "long_name": "Distrito de Callalli"}, {"types": ["administrative_area_level_2", "political"], "short_name": "Kaylluma pruwinsya", "long_name": "Kaylluma pruwinsya"}, {"types": ["administrative_area_level_1", "political"], "short_name": "Arequipa", "long_name": "Arequipa"}, {"types": ["country", "political"], "short_name": "PE", "long_name": "Peru"}], "place_id": "ChIJ_2magO_EaZERe75MdlXksuw", "formatted_address": "Distrito de Callalli, Peru"}], "status": "OK"}, {"results": [{"partial_match": true, "address_components": [{"types": ["country", "political"], "short_name": "PE", "long_name": "Peru"}, {"types": ["administrative_area_level_2", "political"], "short_name": "Caylloma", "long_name": "Caylloma"}, {"types": ["administrative_area_level_1", "political"], "short_name": "Arequipa", "long_name": "Arequipa"}], "place_id": "ChIJW2TTcJC4aZERRYkdNnl7WUI", "geometry": {"location": {"lng": -71.4438761, "lat": -15.3471443}, "viewport": {"northeast": {"lng": -71.4425271197085, "lat": -15.3457953197085}, "southwest": {"lng": -71.44522508029151, "lat": -15.3484932802915}}, "location_type": "GEOMETRIC_CENTER"}, "types": ["establishment", "hospital", "point_of_interest"], "formatted_address": "Unnamed Road,, Peru"}], "status": "OK"}, {"results": [{"geometry": {"location": {"lng": -71.5490271, "lat": -15.5319205}, "viewport": {"northeast": {"lng": -71.5448248, "lat": -15.5294939}, "southwest": {"lng": -71.55269179999999, "lat": -15.5349339}}, "bounds": {"northeast": {"lng": -71.5448248, "lat": -15.5294939}, "southwest": {"lng": -71.55269179999999, "lat": -15.5349339}}, "location_type": "APPROXIMATE"}, "types": ["locality", "political"], "address_components": [{"types": ["locality", "political"], "short_name": "Distrito de Tuti", "long_name": "Distrito de Tuti"}, {"types": ["administrative_area_level_2", "political"], "short_name": "Caylloma", "long_name": "Caylloma"}, {"types": ["administrative_area_level_1", "political"], "short_name": "Arequipa", "long_name": "Arequipa"}, {"types": ["country", "political"], "short_name": "PE", "long_name": "Peru"}], "place_id": "ChIJ4_oioLjCaZERT16OekzJjKg", "formatted_address": "Distrito de Tuti, Peru"}], "status": "OK"}, {"results": [{"geometry": {"location": {"lng": -72.020866, "lat": -14.68116}, "viewport": {"northeast": {"lng": -72.00485859999999, "lat": -14.670366}, "southwest": {"lng": -72.03687339999999, "lat": -14.6919534}}, "location_type": "APPROXIMATE"}, "types": ["locality", "political"], "address_components": [{"types": ["locality", "political"], "short_name": "Cayarani", "long_name": "Cayarani"}, {"types": ["administrative_area_level_2", "political"], "short_name": "Condesuyos", "long_name": "Condesuyos"}, {"types": ["administrative_area_level_1", "political"], "short_name": "Arequipa", "long_name": "Arequipa"}, {"types": ["country", "political"], "short_name": "PE", "long_name": "Peru"}], "place_id": "ChIJP4tR25jga5ER3zsI-xHCLds", "formatted_address": "Cayarani, Peru"}], "status": "OK"}, {"results": [{"geometry": {"location": {"lng": -72.9184484, "lat": -15.5475134}, "viewport": {"northeast": {"lng": -72.9170994197085, "lat": -15.5461644197085}, "southwest": {"lng": -72.91979738029151, "lat": -15.5488623802915}}, "location_type": "GEOMETRIC_CENTER"}, "types": ["establishment", "point_of_interest"], "address_components": [{"types": ["country", "political"], "short_name": "PE", "long_name": "Peru"}, {"types": ["administrative_area_level_2", "political"], "short_name": "Condesuyos Province", "long_name": "Condesuyos Province"}, {"types": ["administrative_area_level_1", "political"], "short_name": "Arequipa", "long_name": "Arequipa"}], "place_id": "ChIJGUG8MGuSapER3wUHyCvUy-M", "formatted_address": "Peru"}, {"geometry": {"location": {"lng": -72.833865, "lat": -15.5047789}, "viewport": {"northeast": {"lng": -72.83251601970849, "lat": -15.5034299197085}, "southwest": {"lng": -72.83521398029151, "lat": -15.5061278802915}}, "location_type": "GEOMETRIC_CENTER"}, "types": ["establishment", "point_of_interest", "police"], "address_components": [{"types": ["country", "political"], "short_name": "PE", "long_name": "Peru"}], "place_id": "ChIJ9-2Pf-6MapERJL8eI6zeNWc", "formatted_address": "Avenida Salamanca S/N - Condesuyos - Salamanca, Peru"}], "status": "OK"}, {"results": [{"geometry": {"location": {"lng": -74.52435299999999, "lat": -13.58481}, "viewport": {"northeast": {"lng": -74.5083456, "lat": -13.5739639}, "southwest": {"lng": -74.5403604, "lat": -13.5956556}}, "location_type": "APPROXIMATE"}, "types": ["locality", "political"], "address_components": [{"types": ["locality", "political"], "short_name": "Totos", "long_name": "Totos"}, {"types": ["administrative_area_level_2", "political"], "short_name": "Provincia de Cangallo", "long_name": "Provincia de Cangallo"}, {"types": ["administrative_area_level_1", "political"], "short_name": "Ayacucho", "long_name": "Ayacucho"}, {"types": ["country", "political"], "short_name": "PE", "long_name": "Peru"}], "place_id": "ChIJL7pKE0BGEpERi552IscBHX4", "formatted_address": "Totos, Peru"}], "status": "OK"}, {"results": [{"geometry": {"location": {"lng": -73.87204489999999, "lat": -14.1102622}, "viewport": {"northeast": {"lng": -73.8698386, "lat": -14.107807}, "southwest": {"lng": -73.8761474, "lat": -14.1126559}}, "bounds": {"northeast": {"lng": -73.8698386, "lat": -14.107807}, "southwest": {"lng": -73.8761474, "lat": -14.1126559}}, "location_type": "APPROXIMATE"}, "types": ["locality", "political"], "address_components": [{"types": ["locality", "political"], "short_name": "Morcolla", "long_name": "Morcolla"}, {"types": ["administrative_area_level_2", "political"], "short_name": "Sucre", "long_name": "Sucre"}, {"types": ["administrative_area_level_1", "political"], "short_name": "Ayacucho", "long_name": "Ayacucho"}, {"types": ["country", "political"], "short_name": "PE", "long_name": "Peru"}], "place_id": "ChIJ-SyqGcxqE5ERZX2gkexcB-0", "formatted_address": "Morcolla, Peru"}], "status": "OK"}, {"results": [{"geometry": {"location": {"lng": -72.2082487, "lat": -13.4133237}, "viewport": {"northeast": {"lng": -72.2034788, "lat": -13.4105349}, "southwest": {"lng": -72.2111176, "lat": -13.4182576}}, "bounds": {"northeast": {"lng": -72.2034788, "lat": -13.4105349}, "southwest": {"lng": -72.2111176, "lat": -13.4182576}}, "location_type": "APPROXIMATE"}, "types": ["locality", "political"], "address_components": [{"types": ["locality", "political"], "short_name": "Huarocondo", "long_name": "Huarocondo"}, {"types": ["administrative_area_level_2", "political"], "short_name": "Provincia de Anta", "long_name": "Provincia de Anta"}, {"types": ["administrative_area_level_1", "political"], "short_name": "Cuzco", "long_name": "Cuzco"}, {"types": ["country", "political"], "short_name": "PE", "long_name": "Peru"}], "place_id": "ChIJOzImXMTFbZERkg6qVZVcTD4", "formatted_address": "Huarocondo, Peru"}], "status": "OK"}, {"results": [{"geometry": {"location": {"lng": -71.3957971, "lat": -14.4765263}, "viewport": {"northeast": {"lng": -71.3858987, "lat": -14.4690273}, "southwest": {"lng": -71.40353689999999, "lat": -14.482449}}, "bounds": {"northeast": {"lng": -71.3858987, "lat": -14.4690273}, "southwest": {"lng": -71.40353689999999, "lat": -14.482449}}, "location_type": "APPROXIMATE"}, "types": ["locality", "political"], "address_components": [{"types": ["locality", "political"], "short_name": "Checca", "long_name": "Checca"}, {"types": ["administrative_area_level_2", "political"], "short_name": "Canas", "long_name": "Canas"}, {"types": ["administrative_area_level_1", "political"], "short_name": "Cuzco", "long_name": "Cuzco"}, {"types": ["country", "political"], "short_name": "PE", "long_name": "Peru"}], "place_id": "ChIJq_8RBME6aZERjrl8SQDnoTk", "formatted_address": "Checca, Peru"}], "status": "OK"}, {"results": [], "status": "ZERO_RESULTS"}, {"results": [{"geometry": {"location": {"lng": -71.2733149, "lat": -14.432333}, "viewport": {"northeast": {"lng": -71.26955509999999, "lat": -14.4291942}, "southwest": {"lng": -71.27693649999999, "lat": -14.4352204}}, "bounds": {"northeast": {"lng": -71.26955509999999, "lat": -14.4291942}, "southwest": {"lng": -71.27693649999999, "lat": -14.4352204}}, "location_type": "APPROXIMATE"}, "types": ["locality", "political"], "address_components": [{"types": ["locality", "political"], "short_name": "Langui", "long_name": "Langui"}, {"types": ["administrative_area_level_2", "political"], "short_name": "Canas", "long_name": "Canas"}, {"types": ["administrative_area_level_1", "political"], "short_name": "Cuzco", "long_name": "Cuzco"}, {"types": ["country", "political"], "short_name": "PE", "long_name": "Peru"}], "place_id": "ChIJYxSlJLooaZER82Ut1m_NEk4", "formatted_address": "Langui, Peru"}], "status": "OK"}, {"results": [{"geometry": {"location": {"lng": -71.15529599999999, "lat": -14.50557}, "viewport": {"northeast": {"lng": -71.1392886, "lat": -14.4947674}, "southwest": {"lng": -71.1713034, "lat": -14.516372}}, "location_type": "APPROXIMATE"}, "types": ["locality", "political"], "address_components": [{"types": ["locality", "political"], "short_name": "Layo", "long_name": "Layo"}, {"types": ["administrative_area_level_2", "political"], "short_name": "Canas Province", "long_name": "Canas Province"}, {"types": ["administrative_area_level_1", "political"], "short_name": "Cusco", "long_name": "Cusco"}, {"types": ["country", "political"], "short_name": "PE", "long_name": "Peru"}], "place_id": "ChIJu31F9efYaJERLZobih9zLX8", "formatted_address": "Layo, Peru"}], "status": "OK"}, {"results": [{"geometry": {"location": {"lng": -71.4603621, "lat": -14.1462865}, "viewport": {"northeast": {"lng": -71.4577389, "lat": -14.1396136}, "southwest": {"lng": -71.4614726, "lat": -14.1500586}}, "bounds": {"northeast": {"lng": -71.4577389, "lat": -14.1396136}, "southwest": {"lng": -71.4614726, "lat": -14.1500586}}, "location_type": "APPROXIMATE"}, "types": ["locality", "political"], "address_components": [{"types": ["locality", "political"], "short_name": "Pampamarca", "long_name": "Pampamarca"}, {"types": ["administrative_area_level_2", "political"], "short_name": "Canas", "long_name": "Canas"}, {"types": ["administrative_area_level_1", "political"], "short_name": "Cuzco", "long_name": "Cuzco"}, {"types": ["country", "political"], "short_name": "PE", "long_name": "Peru"}], "place_id": "ChIJoc77_yPPbpERFBXilZbpbfc", "formatted_address": "Pampamarca, Peru"}], "status": "OK"}, {"results": [{"geometry": {"location": {"lng": -71.45516769999999, "lat": -14.3808339}, "viewport": {"northeast": {"lng": -71.45134449999999, "lat": -14.3765293}, "southwest": {"lng": -71.4594326, "lat": -14.3832638}}, "bounds": {"northeast": {"lng": -71.45134449999999, "lat": -14.3765293}, "southwest": {"lng": -71.4594326, "lat": -14.3832638}}, "location_type": "APPROXIMATE"}, "types": ["locality", "political"], "address_components": [{"types": ["locality", "political"], "short_name": "Quehue", "long_name": "Quehue"}, {"types": ["administrative_area_level_2", "political"], "short_name": "Canas", "long_name": "Canas"}, {"types": ["administrative_area_level_1", "political"], "short_name": "Cuzco", "long_name": "Cuzco"}, {"types": ["country", "political"], "short_name": "PE", "long_name": "Peru"}], "place_id": "ChIJoRBII0cxaZEROmcoezF3Dn0", "formatted_address": "Quehue, Peru"}], "status": "OK"}, {"results": [{"geometry": {"location": {"lng": -71.9592263, "lat": -13.5292857}, "viewport": {"northeast": {"lng": -71.9578773197085, "lat": -13.5279367197085}, "southwest": {"lng": -71.96057528029151, "lat": -13.5306346802915}}, "location_type": "GEOMETRIC_CENTER"}, "types": ["establishment", "point_of_interest"], "address_components": [{"types": ["route"], "short_name": "Av. T\u00fapac Amaru", "long_name": "Avenida T\u00fapac Amaru"}, {"types": ["country", "political"], "short_name": "PE", "long_name": "Peru"}], "place_id": "ChIJkzVeyPvVbZER4nkjUcpBuC4", "formatted_address": "n1 15, Av. T\u00fapac Amaru, Peru"}, {"geometry": {"location": {"lng": -71.96002179999999, "lat": -13.5291167}, "viewport": {"northeast": {"lng": -71.95867281970848, "lat": -13.5277677197085}, "southwest": {"lng": -71.9613707802915, "lat": -13.5304656802915}}, "location_type": "GEOMETRIC_CENTER"}, "types": ["establishment", "night_club", "point_of_interest"], "address_components": [{"types": ["route"], "short_name": "Av. T\u00fapac Amaru", "long_name": "Avenida T\u00fapac Amaru"}, {"types": ["locality", "political"], "short_name": "Cusco", "long_name": "Cusco"}, {"types": ["country", "political"], "short_name": "PE", "long_name": "Peru"}], "place_id": "ChIJcd3luvvVbZERGhrt5dRLrRo", "formatted_address": "Entre Av. Canas y Av. Tupac Amaru., Av. T\u00fapac Amaru, Cusco, Peru"}], "status": "OK"}, {"results": [{"geometry": {"location": {"lng": -71.4314206, "lat": -14.2171388}, "viewport": {"northeast": {"lng": -71.426282, "lat": -14.2101819}, "southwest": {"lng": -71.4360238, "lat": -14.226115}}, "bounds": {"northeast": {"lng": -71.426282, "lat": -14.2101819}, "southwest": {"lng": -71.4360238, "lat": -14.226115}}, "location_type": "APPROXIMATE"}, "types": ["locality", "political"], "address_components": [{"types": ["locality", "political"], "short_name": "Yanaoca District", "long_name": "Yanaoca District"}, {"types": ["administrative_area_level_2", "political"], "short_name": "Canas Province", "long_name": "Canas Province"}, {"types": ["administrative_area_level_1", "political"], "short_name": "Cusco", "long_name": "Cusco"}, {"types": ["country", "political"], "short_name": "PE", "long_name": "Peru"}], "place_id": "ChIJPeuA2krMbpERHi3b5zxB37I", "formatted_address": "Yanaoca District, Peru"}], "status": "OK"}, {"results": [{"geometry": {"location": {"lng": -71.4306785, "lat": -14.1007487}, "viewport": {"northeast": {"lng": -71.4252949, "lat": -14.0976617}, "southwest": {"lng": -71.435895, "lat": -14.1048624}}, "bounds": {"northeast": {"lng": -71.4252949, "lat": -14.0976617}, "southwest": {"lng": -71.435895, "lat": -14.1048624}}, "location_type": "APPROXIMATE"}, "types": ["locality", "political"], "address_components": [{"types": ["locality", "political"], "short_name": "Combapata District", "long_name": "Combapata District"}, {"types": ["administrative_area_level_2", "political"], "short_name": "Canchis Province", "long_name": "Canchis Province"}, {"types": ["administrative_area_level_1", "political"], "short_name": "Cusco", "long_name": "Cusco"}, {"types": ["country", "political"], "short_name": "PE", "long_name": "Peru"}], "place_id": "ChIJYyKuzYHFbpERSBujKCIcxos", "formatted_address": "Combapata District, Peru"}], "status": "OK"}, {"results": [{"geometry": {"location": {"lng": -71.16935939999999, "lat": -14.3568964}, "viewport": {"northeast": {"lng": -71.163125, "lat": -14.3520008}, "southwest": {"lng": -71.17599969999999, "lat": -14.3624362}}, "bounds": {"northeast": {"lng": -71.163125, "lat": -14.3520008}, "southwest": {"lng": -71.17599969999999, "lat": -14.3624362}}, "location_type": "APPROXIMATE"}, "types": ["locality", "political"], "address_components": [{"types": ["locality", "political"], "short_name": "Marangani District", "long_name": "Marangani District"}, {"types": ["administrative_area_level_2", "political"], "short_name": "Canchis Province", "long_name": "Canchis Province"}, {"types": ["administrative_area_level_1", "political"], "short_name": "Cusco", "long_name": "Cusco"}, {"types": ["country", "political"], "short_name": "PE", "long_name": "Peru"}], "place_id": "ChIJmyQ70hfWaJER7eeebv7UlLQ", "formatted_address": "Marangani District, Peru"}], "status": "OK"}, {"results": [{"geometry": {"location": {"lng": -71.4165779, "lat": -13.9792358}, "viewport": {"northeast": {"lng": -71.4125061, "lat": -13.9715098}, "southwest": {"lng": -71.4253378, "lat": -13.9827537}}, "bounds": {"northeast": {"lng": -71.4125061, "lat": -13.9715098}, "southwest": {"lng": -71.4253378, "lat": -13.9827537}}, "location_type": "APPROXIMATE"}, "types": ["locality", "political"], "address_components": [{"types": ["locality", "political"], "short_name": "Pitumarca", "long_name": "Pitumarca"}, {"types": ["administrative_area_level_2", "political"], "short_name": "Canchis", "long_name": "Canchis"}, {"types": ["administrative_area_level_1", "political"], "short_name": "Cuzco", "long_name": "Cuzco"}, {"types": ["country", "political"], "short_name": "PE", "long_name": "Peru"}], "place_id": "ChIJl5tCIRvDbpERcBYqtfGbaO8", "formatted_address": "Pitumarca, Peru"}], "status": "OK"}, {"results": [{"geometry": {"location": {"lng": -71.2220832, "lat": -14.2713299}, "viewport": {"northeast": {"lng": -71.21578219999999, "lat": -14.2489102}, "southwest": {"lng": -71.24290479999999, "lat": -14.2940781}}, "bounds": {"northeast": {"lng": -71.21578219999999, "lat": -14.2489102}, "southwest": {"lng": -71.24290479999999, "lat": -14.2940781}}, "location_type": "APPROXIMATE"}, "types": ["locality", "political"], "address_components": [{"types": ["locality", "political"], "short_name": "Sicuani", "long_name": "Sicuani"}, {"types": ["administrative_area_level_2", "political"], "short_name": "Canchis Province", "long_name": "Canchis Province"}, {"types": ["administrative_area_level_1", "political"], "short_name": "Cusco", "long_name": "Cusco"}, {"types": ["country", "political"], "short_name": "PE", "long_name": "Peru"}], "place_id": "ChIJbWx-rMMqaZERGJAsfl_DxrM", "formatted_address": "Sicuani, Peru"}], "status": "OK"}, {"results": [{"geometry": {"location": {"lng": -72.0023004, "lat": -14.0074812}, "viewport": {"northeast": {"lng": -72.0009514197085, "lat": -14.0061322197085}, "southwest": {"lng": -72.0036493802915, "lat": -14.0088301802915}}, "location_type": "GEOMETRIC_CENTER"}, "types": ["establishment", "neighborhood", "point_of_interest", "political"], "address_components": [{"types": ["country", "political"], "short_name": "PE", "long_name": "Peru"}, {"types": ["administrative_area_level_2", "political"], "short_name": "Chumbivilcas Province", "long_name": "Chumbivilcas Province"}, {"types": ["administrative_area_level_1", "political"], "short_name": "Cusco", "long_name": "Cusco"}], "place_id": "ChIJUbWWHQcfbJERtAt1lD_i_Fs", "formatted_address": "Peru"}], "status": "OK"}, {"results": [{"geometry": {"location": {"lng": -71.84972119999999, "lat": -14.3005171}, "viewport": {"northeast": {"lng": -71.84324740000001, "lat": -14.2964484}, "southwest": {"lng": -71.8570232, "lat": -14.3069696}}, "bounds": {"northeast": {"lng": -71.84324740000001, "lat": -14.2964484}, "southwest": {"lng": -71.8570232, "lat": -14.3069696}}, "location_type": "APPROXIMATE"}, "types": ["locality", "political"], "address_components": [{"types": ["locality", "political"], "short_name": "Chamaca District", "long_name": "Chamaca District"}, {"types": ["administrative_area_level_2", "political"], "short_name": "Chumbivilcas Province", "long_name": "Chumbivilcas Province"}, {"types": ["administrative_area_level_1", "political"], "short_name": "Cusco", "long_name": "Cusco"}, {"types": ["country", "political"], "short_name": "PE", "long_name": "Peru"}], "place_id": "ChIJu4rHLaSsbpERGwzYvO0U6Xk", "formatted_address": "Chamaca District, Peru"}], "status": "OK"}, {"results": [{"geometry": {"location": {"lng": -72.044647, "lat": -14.2908}, "viewport": {"northeast": {"lng": -72.02863959999999, "lat": -14.279987}, "southwest": {"lng": -72.06065439999999, "lat": -14.3016124}}, "location_type": "APPROXIMATE"}, "types": ["locality", "political"], "address_components": [{"types": ["locality", "political"], "short_name": "Colquemarca", "long_name": "Colquemarca"}, {"types": ["administrative_area_level_2", "political"], "short_name": "Provincia de Chumbivilcas", "long_name": "Provincia de Chumbivilcas"}, {"types": ["administrative_area_level_1", "political"], "short_name": "Cuzco", "long_name": "Cuzco"}, {"types": ["country", "political"], "short_name": "PE", "long_name": "Peru"}], "place_id": "ChIJ1d1tktQAbJERrD3QTWxby4Q", "formatted_address": "Colquemarca, Peru"}], "status": "OK"}, {"results": [{"geometry": {"location": {"lng": -71.6880998, "lat": -14.3115167}, "viewport": {"northeast": {"lng": -71.681671, "lat": -14.3042248}, "southwest": {"lng": -71.69660569999999, "lat": -14.3217729}}, "bounds": {"northeast": {"lng": -71.681671, "lat": -14.3042248}, "southwest": {"lng": -71.69660569999999, "lat": -14.3217729}}, "location_type": "APPROXIMATE"}, "types": ["locality", "political"], "address_components": [{"types": ["locality", "political"], "short_name": "Livitaca District", "long_name": "Livitaca District"}, {"types": ["administrative_area_level_2", "political"], "short_name": "Chumbivilcas Province", "long_name": "Chumbivilcas Province"}, {"types": ["administrative_area_level_1", "political"], "short_name": "Cusco", "long_name": "Cusco"}, {"types": ["country", "political"], "short_name": "PE", "long_name": "Peru"}], "place_id": "ChIJN4mekLdMaZER9TX4oKJU-Qw", "formatted_address": "Livitaca District, Peru"}], "status": "OK"}, {"results": [{"geometry": {"location": {"lng": -72.12155899999999, "lat": -14.34823}, "viewport": {"northeast": {"lng": -72.1055516, "lat": -14.3374198}, "southwest": {"lng": -72.1375664, "lat": -14.3590397}}, "location_type": "APPROXIMATE"}, "types": ["locality", "political"], "address_components": [{"types": ["locality", "political"], "short_name": "Llusco District", "long_name": "Llusco District"}, {"types": ["administrative_area_level_2", "political"], "short_name": "Chumbivilcas Province", "long_name": "Chumbivilcas Province"}, {"types": ["administrative_area_level_1", "political"], "short_name": "Cusco", "long_name": "Cusco"}, {"types": ["country", "political"], "short_name": "PE", "long_name": "Peru"}], "place_id": "ChIJozDuhw34a5ERbMb8CO_doTc", "formatted_address": "Llusco District, Peru"}], "status": "OK"}, {"results": [{"geometry": {"location": {"lng": -72.0794063, "lat": -14.4485861}, "viewport": {"northeast": {"lng": -72.0742607, "lat": -14.4424936}, "southwest": {"lng": -72.0897102, "lat": -14.4596982}}, "bounds": {"northeast": {"lng": -72.0742607, "lat": -14.4424936}, "southwest": {"lng": -72.0897102, "lat": -14.4596982}}, "location_type": "APPROXIMATE"}, "types": ["locality", "political"], "address_components": [{"types": ["locality", "political"], "short_name": "Santo Tomas", "long_name": "Santo Tomas"}, {"types": ["administrative_area_level_2", "political"], "short_name": "Chumbivilcas Province", "long_name": "Chumbivilcas Province"}, {"types": ["administrative_area_level_1", "political"], "short_name": "Apurimac", "long_name": "Apurimac"}, {"types": ["country", "political"], "short_name": "PE", "long_name": "Peru"}], "place_id": "ChIJAVaG-7n7a5ERqDQYOvsusUM", "formatted_address": "Santo Tomas, Peru"}], "status": "OK"}, {"results": [{"geometry": {"location": {"lng": -71.88636, "lat": -14.51688}, "viewport": {"northeast": {"lng": -71.87035259999999, "lat": -14.506078}, "southwest": {"lng": -71.9023674, "lat": -14.5276815}}, "location_type": "APPROXIMATE"}, "types": ["locality", "political"], "address_components": [{"types": ["locality", "political"], "short_name": "Velille", "long_name": "Velille"}, {"types": ["administrative_area_level_2", "political"], "short_name": "Provincia de Chumbivilcas", "long_name": "Provincia de Chumbivilcas"}, {"types": ["administrative_area_level_1", "political"], "short_name": "Cuzco", "long_name": "Cuzco"}, {"types": ["country", "political"], "short_name": "PE", "long_name": "Peru"}], "place_id": "ChIJaVqPLsFZaZERIud-z0jLbls", "formatted_address": "Velille, Peru"}], "status": "OK"}, {"results": [], "status": "ZERO_RESULTS"}, {"results": [{"geometry": {"location": {"lng": -71.0927279, "lat": -15.25055}, "viewport": {"northeast": {"lng": -71.0767205, "lat": -15.2397847}, "southwest": {"lng": -71.10873529999999, "lat": -15.2613148}}, "location_type": "APPROXIMATE"}, "types": ["locality", "political"], "address_components": [{"types": ["locality", "political"], "short_name": "Condoroma", "long_name": "Condoroma"}, {"types": ["administrative_area_level_2", "political"], "short_name": "Espinar", "long_name": "Espinar"}, {"types": ["administrative_area_level_1", "political"], "short_name": "Cuzco", "long_name": "Cuzco"}, {"types": ["country", "political"], "short_name": "PE", "long_name": "Peru"}], "place_id": "ChIJ38B36FlJaJERIwMdWF2l_NU", "formatted_address": "Condoroma, Peru"}], "status": "OK"}, {"results": [{"geometry": {"location": {"lng": -71.5323346, "lat": -14.7981305}, "viewport": {"northeast": {"lng": -71.5240646, "lat": -14.7913457}, "southwest": {"lng": -71.54023289999999, "lat": -14.8033368}}, "bounds": {"northeast": {"lng": -71.5240646, "lat": -14.7913457}, "southwest": {"lng": -71.54023289999999, "lat": -14.8033368}}, "location_type": "APPROXIMATE"}, "types": ["locality", "political"], "address_components": [{"types": ["locality", "political"], "short_name": "Coporaque District, Espinar", "long_name": "Coporaque District, Espinar"}, {"types": ["administrative_area_level_2", "political"], "short_name": "Espinar Province", "long_name": "Espinar Province"}, {"types": ["administrative_area_level_1", "political"], "short_name": "Cusco", "long_name": "Cusco"}, {"types": ["country", "political"], "short_name": "PE", "long_name": "Peru"}], "place_id": "ChIJGQ8hychsaZERberntu6U-_A", "formatted_address": "Coporaque District, Espinar, Peru"}], "status": "OK"}, {"results": [{"geometry": {"location": {"lng": -71.405896, "lat": -14.7879476}, "viewport": {"northeast": {"lng": -70.9519387, "lat": -14.530083}, "southwest": {"lng": -71.90311439999999, "lat": -15.4420979}}, "bounds": {"northeast": {"lng": -70.9519387, "lat": -14.530083}, "southwest": {"lng": -71.90311439999999, "lat": -15.4420979}}, "location_type": "APPROXIMATE"}, "types": ["administrative_area_level_2", "political"], "address_components": [{"types": ["administrative_area_level_2", "political"], "short_name": "Espinar Province", "long_name": "Espinar Province"}, {"types": ["country", "political"], "short_name": "PE", "long_name": "Peru"}], "place_id": "ChIJDxuojzIIaZERiBS8GDa28u4", "formatted_address": "Espinar Province, Peru"}], "status": "OK"}, {"results": [], "status": "ZERO_RESULTS"}, {"results": [{"partial_match": true, "address_components": [{"types": ["locality", "political"], "short_name": "H\u00e9ctor Tejada", "long_name": "H\u00e9ctor Tejada"}, {"types": ["administrative_area_level_2", "political"], "short_name": "Espinar", "long_name": "Espinar"}, {"types": ["administrative_area_level_1", "political"], "short_name": "Cuzco", "long_name": "Cuzco"}, {"types": ["country", "political"], "short_name": "PE", "long_name": "Peru"}], "place_id": "ChIJ16MRkfUBaZERKFSRoiV52d4", "geometry": {"location": {"lng": -71.2121815, "lat": -14.8913059}, "viewport": {"northeast": {"lng": -71.21083251970849, "lat": -14.8899569197085}, "southwest": {"lng": -71.21353048029151, "lat": -14.8926548802915}}, "location_type": "GEOMETRIC_CENTER"}, "types": ["establishment", "point_of_interest"], "formatted_address": "H\u00e9ctor Tejada, Peru"}], "status": "OK"}, {"results": [{"geometry": {"location": {"lng": -71.4047033, "lat": -14.6784615}, "viewport": {"northeast": {"lng": -71.39986739999999, "lat": -14.6747082}, "southwest": {"lng": -71.4092124, "lat": -14.6814856}}, "bounds": {"northeast": {"lng": -71.39986739999999, "lat": -14.6747082}, "southwest": {"lng": -71.4092124, "lat": -14.6814856}}, "location_type": "APPROXIMATE"}, "types": ["locality", "political"], "address_components": [{"types": ["locality", "political"], "short_name": "Pichigua District", "long_name": "Pichigua District"}, {"types": ["administrative_area_level_2", "political"], "short_name": "Espinar Province", "long_name": "Espinar Province"}, {"types": ["administrative_area_level_1", "political"], "short_name": "Cusco", "long_name": "Cusco"}, {"types": ["country", "political"], "short_name": "PE", "long_name": "Peru"}], "place_id": "ChIJKQNz3wsXaZERJsd6iNVHJAw", "formatted_address": "Pichigua District, Peru"}], "status": "OK"}, {"results": [{"geometry": {"location": {"lng": -71.6430839, "lat": -15.0088238}, "viewport": {"northeast": {"lng": -71.64173491970848, "lat": -15.0074748197085}, "southwest": {"lng": -71.6444328802915, "lat": -15.0101727802915}}, "location_type": "GEOMETRIC_CENTER"}, "types": ["establishment", "lodging", "point_of_interest"], "address_components": [{"types": ["country", "political"], "short_name": "PE", "long_name": "Peru"}, {"types": ["administrative_area_level_2", "political"], "short_name": "Espinar Province", "long_name": "Espinar Province"}, {"types": ["administrative_area_level_1", "political"], "short_name": "Cusco", "long_name": "Cusco"}], "place_id": "ChIJlw0lyYx1aZERKZiPsHtE02k", "formatted_address": "Peru"}], "status": "OK"}, {"results": [{"partial_match": true, "address_components": [{"types": ["locality", "political"], "short_name": "Huaro District", "long_name": "Huaro District"}, {"types": ["administrative_area_level_2", "political"], "short_name": "Quispicanchi Province", "long_name": "Quispicanchi Province"}, {"types": ["administrative_area_level_1", "political"], "short_name": "Cusco", "long_name": "Cusco"}, {"types": ["country", "political"], "short_name": "PE", "long_name": "Peru"}], "place_id": "ChIJNT0182yMbpER0r5jkOUzLUw", "geometry": {"location": {"lng": -71.6421194, "lat": -13.6908547}, "viewport": {"northeast": {"lng": -71.6361379, "lat": -13.6869365}, "southwest": {"lng": -71.6455792, "lat": -13.6956718}}, "bounds": {"northeast": {"lng": -71.6361379, "lat": -13.6869365}, "southwest": {"lng": -71.6455792, "lat": -13.6956718}}, "location_type": "APPROXIMATE"}, "types": ["locality", "political"], "formatted_address": "Huaro District, Peru"}, {"partial_match": true, "address_components": [{"types": ["locality", "political"], "short_name": "Quiquijana", "long_name": "Quiquijana"}, {"types": ["administrative_area_level_2", "political"], "short_name": "Quispicanchi", "long_name": "Quispicanchi"}, {"types": ["administrative_area_level_1", "political"], "short_name": "Cuzco", "long_name": "Cuzco"}, {"types": ["country", "political"], "short_name": "PE", "long_name": "Peru"}], "place_id": "ChIJASbzf5HsbpER8BFuWASutbA", "geometry": {"location": {"lng": -71.53978699999999, "lat": -13.82901}, "viewport": {"northeast": {"lng": -71.5237796, "lat": -13.8181752}, "southwest": {"lng": -71.5557944, "lat": -13.8398443}}, "location_type": "APPROXIMATE"}, "types": ["locality", "political"], "formatted_address": "Quiquijana, Peru"}], "status": "OK"}, {"results": [{"geometry": {"location": {"lng": -70.9769245, "lat": -13.5911247}, "viewport": {"northeast": {"lng": -70.9609171, "lat": -13.5802789}, "southwest": {"lng": -70.9929319, "lat": -13.60197}}, "location_type": "APPROXIMATE"}, "types": ["locality", "political"], "address_components": [{"types": ["locality", "political"], "short_name": "Marcapata District", "long_name": "Marcapata District"}, {"types": ["administrative_area_level_2", "political"], "short_name": "Quispicanchi Province", "long_name": "Quispicanchi Province"}, {"types": ["administrative_area_level_1", "political"], "short_name": "Cusco", "long_name": "Cusco"}, {"types": ["country", "political"], "short_name": "PE", "long_name": "Peru"}], "place_id": "ChIJKT74KMagb5ER2eKMS_UxAt8", "formatted_address": "Marcapata District, Peru"}], "status": "OK"}, {"results": [{"geometry": {"location": {"lng": -71.53978699999999, "lat": -13.82901}, "viewport": {"northeast": {"lng": -71.5237796, "lat": -13.8181752}, "southwest": {"lng": -71.5557944, "lat": -13.8398443}}, "location_type": "APPROXIMATE"}, "types": ["locality", "political"], "address_components": [{"types": ["locality", "political"], "short_name": "Quiquijana", "long_name": "Quiquijana"}, {"types": ["administrative_area_level_2", "political"], "short_name": "Quispicanchi", "long_name": "Quispicanchi"}, {"types": ["administrative_area_level_1", "political"], "short_name": "Cuzco", "long_name": "Cuzco"}, {"types": ["country", "political"], "short_name": "PE", "long_name": "Peru"}], "place_id": "ChIJASbzf5HsbpER8BFuWASutbA", "formatted_address": "Quiquijana, Peru"}], "status": "OK"}, {"results": [{"geometry": {"location": {"lng": -75.318153, "lat": -13.28918}, "viewport": {"northeast": {"lng": -75.3021456, "lat": -13.2783206}, "southwest": {"lng": -75.3341604, "lat": -13.300039}}, "location_type": "APPROXIMATE"}, "types": ["locality", "political"], "address_components": [{"types": ["locality", "political"], "short_name": "Castrovirreyna", "long_name": "Castrovirreyna"}, {"types": ["administrative_area_level_2", "political"], "short_name": "Castrovirreyna", "long_name": "Castrovirreyna"}, {"types": ["administrative_area_level_1", "political"], "short_name": "Huancavelica", "long_name": "Huancavelica"}, {"types": ["country", "political"], "short_name": "PE", "long_name": "Peru"}], "place_id": "ChIJG7wVY-fnEZERMVBWTIvQMI4", "formatted_address": "Castrovirreyna, Peru"}], "status": "OK"}, {"results": [{"geometry": {"location": {"lng": -75.64626609999999, "lat": -13.0746594}, "viewport": {"northeast": {"lng": -75.6427789, "lat": -13.0709715}, "southwest": {"lng": -75.6498384, "lat": -13.078057}}, "bounds": {"northeast": {"lng": -75.6427789, "lat": -13.0709715}, "southwest": {"lng": -75.6498384, "lat": -13.078057}}, "location_type": "APPROXIMATE"}, "types": ["locality", "political"], "address_components": [{"types": ["locality", "political"], "short_name": "Tantar\u00e1", "long_name": "Tantar\u00e1"}, {"types": ["administrative_area_level_2", "political"], "short_name": "Castrovirreyna Province", "long_name": "Castrovirreyna Province"}, {"types": ["administrative_area_level_1", "political"], "short_name": "Huancavelica", "long_name": "Huancavelica"}, {"types": ["country", "political"], "short_name": "PE", "long_name": "Peru"}], "place_id": "ChIJfwPnyLgrDpER9Uc-Nc7cdXM", "formatted_address": "Tantar\u00e1, Peru"}], "status": "OK"}, {"results": [{"geometry": {"location": {"lng": -75.41025379999999, "lat": -13.3108167}, "viewport": {"northeast": {"lng": -75.40879921970851, "lat": -13.3093994697085}, "southwest": {"lng": -75.41149718029152, "lat": -13.3120974302915}}, "bounds": {"northeast": {"lng": -75.40917460000001, "lat": -13.309861}, "southwest": {"lng": -75.4111218, "lat": -13.3116359}}, "location_type": "APPROXIMATE"}, "types": ["locality", "political"], "address_components": [{"types": ["locality", "political"], "short_name": "Mollepampa District", "long_name": "Mollepampa District"}, {"types": ["administrative_area_level_2", "political"], "short_name": "Castrovirreyna Province", "long_name": "Castrovirreyna Province"}, {"types": ["administrative_area_level_1", "political"], "short_name": "Huancavelica", "long_name": "Huancavelica"}, {"types": ["country", "political"], "short_name": "PE", "long_name": "Peru"}], "place_id": "ChIJI4jdzDfDEZERPoV-QTMbP-4", "formatted_address": "Mollepampa District, Peru"}], "status": "OK"}, {"results": [{"geometry": {"location": {"lng": -75.13976770000001, "lat": -13.0730531}, "viewport": {"northeast": {"lng": -75.13303309999999, "lat": -13.068409}, "southwest": {"lng": -75.14990879999999, "lat": -13.0833549}}, "bounds": {"northeast": {"lng": -75.13303309999999, "lat": -13.068409}, "southwest": {"lng": -75.14990879999999, "lat": -13.0833549}}, "location_type": "APPROXIMATE"}, "types": ["locality", "political"], "address_components": [{"types": ["locality", "political"], "short_name": "Santa Ana District", "long_name": "Santa Ana District"}, {"types": ["administrative_area_level_2", "political"], "short_name": "Castrovirreyna Province", "long_name": "Castrovirreyna Province"}, {"types": ["administrative_area_level_1", "political"], "short_name": "Huancavelica", "long_name": "Huancavelica"}, {"types": ["country", "political"], "short_name": "PE", "long_name": "Peru"}], "place_id": "ChIJwViKQsgCDpERBhRTe0spvug", "formatted_address": "Santa Ana District, Peru"}], "status": "OK"}, {"results": [{"geometry": {"location": {"lng": -74.9443129, "lat": -13.03502}, "viewport": {"northeast": {"lng": -74.9283055, "lat": -13.0241493}, "southwest": {"lng": -74.96032029999999, "lat": -13.0458902}}, "location_type": "APPROXIMATE"}, "types": ["locality", "political"], "address_components": [{"types": ["locality", "political"], "short_name": "Huachocolpa District", "long_name": "Huachocolpa District"}, {"types": ["administrative_area_level_2", "political"], "short_name": "Huancavelica Province", "long_name": "Huancavelica Province"}, {"types": ["administrative_area_level_1", "political"], "short_name": "Huancavelica", "long_name": "Huancavelica"}, {"types": ["country", "political"], "short_name": "PE", "long_name": "Peru"}], "place_id": "ChIJby8ynjj-DZERza8Ic0K8788", "formatted_address": "Huachocolpa District, Peru"}], "status": "OK"}, {"results": [{"geometry": {"location": {"lng": -75.1, "lat": -12.4}, "viewport": {"northeast": {"lng": -75.0839926, "lat": -12.3891021}, "southwest": {"lng": -75.1160074, "lat": -12.4108975}}, "location_type": "APPROXIMATE"}, "types": ["locality", "political"], "address_components": [{"types": ["locality", "political"], "short_name": "Pilchaca District", "long_name": "Pilchaca District"}, {"types": ["administrative_area_level_2", "political"], "short_name": "Huancavelica Province", "long_name": "Huancavelica Province"}, {"types": ["administrative_area_level_1", "political"], "short_name": "Huancavelica", "long_name": "Huancavelica"}, {"types": ["country", "political"], "short_name": "PE", "long_name": "Peru"}], "place_id": "ChIJzd10MZt9DpER7oe2aq9Th-g", "formatted_address": "Pilchaca District, Peru"}], "status": "OK"}, {"results": [{"geometry": {"location": {"lng": -75.3532422, "lat": -13.6040212}, "viewport": {"northeast": {"lng": -75.35071839999999, "lat": -13.601255}, "southwest": {"lng": -75.3548814, "lat": -13.6063647}}, "bounds": {"northeast": {"lng": -75.35071839999999, "lat": -13.601255}, "southwest": {"lng": -75.3548814, "lat": -13.6063647}}, "location_type": "APPROXIMATE"}, "types": ["locality", "political"], "address_components": [{"types": ["locality", "political"], "short_name": "Huaytar\u00e1", "long_name": "Huaytar\u00e1"}, {"types": ["administrative_area_level_2", "political"], "short_name": "Huaytar\u00e1 Province", "long_name": "Huaytar\u00e1 Province"}, {"types": ["administrative_area_level_1", "political"], "short_name": "Huancavelica", "long_name": "Huancavelica"}, {"types": ["country", "political"], "short_name": "PE", "long_name": "Peru"}], "place_id": "ChIJGWXP8py9EZERWOUiUnpFNqs", "formatted_address": "Huaytar\u00e1, Peru"}], "status": "OK"}, {"results": [{"geometry": {"location": {"lng": -74.9975, "lat": -13.3261109}, "viewport": {"northeast": {"lng": -74.9814926, "lat": -13.3152531}, "southwest": {"lng": -75.0135074, "lat": -13.3369682}}, "location_type": "APPROXIMATE"}, "types": ["locality", "political"], "address_components": [{"types": ["locality", "political"], "short_name": "Pilpichaca District", "long_name": "Pilpichaca District"}, {"types": ["administrative_area_level_2", "political"], "short_name": "Huaytar\u00e1 Province", "long_name": "Huaytar\u00e1 Province"}, {"types": ["administrative_area_level_1", "political"], "short_name": "Huancavelica", "long_name": "Huancavelica"}, {"types": ["country", "political"], "short_name": "PE", "long_name": "Peru"}], "place_id": "ChIJm8Ddekz2EZERfDQLyVIMqoc", "formatted_address": "Pilpichaca District, Peru"}], "status": "OK"}, {"results": [{"geometry": {"location": {"lng": -75.29493699999999, "lat": -13.50116}, "viewport": {"northeast": {"lng": -75.2789296, "lat": -13.4903101}, "southwest": {"lng": -75.3109444, "lat": -13.5120094}}, "location_type": "APPROXIMATE"}, "types": ["locality", "political"], "address_components": [{"types": ["locality", "political"], "short_name": "Cusicancha", "long_name": "Cusicancha"}, {"types": ["administrative_area_level_2", "political"], "short_name": "Huaytar\u00e1", "long_name": "Huaytar\u00e1"}, {"types": ["administrative_area_level_1", "political"], "short_name": "Huancavelica", "long_name": "Huancavelica"}, {"types": ["country", "political"], "short_name": "PE", "long_name": "Peru"}], "place_id": "ChIJD8MJLB6VEZERG66PNtupoas", "formatted_address": "Cusicancha, Peru"}], "status": "OK"}, {"results": [{"geometry": {"location": {"lng": -76.7033471, "lat": -9.6781738}, "viewport": {"northeast": {"lng": -76.69881819999999, "lat": -9.673268799999999}, "southwest": {"lng": -76.7103623, "lat": -9.6807567}}, "bounds": {"northeast": {"lng": -76.69881819999999, "lat": -9.673268799999999}, "southwest": {"lng": -76.7103623, "lat": -9.6807567}}, "location_type": "APPROXIMATE"}, "types": ["locality", "political"], "address_components": [{"types": ["locality", "political"], "short_name": "Chuquis", "long_name": "Chuquis"}, {"types": ["administrative_area_level_2", "political"], "short_name": "Dos de Mayo Province", "long_name": "Dos de Mayo Province"}, {"types": ["administrative_area_level_1", "political"], "short_name": "Huanuco", "long_name": "Huanuco"}, {"types": ["country", "political"], "short_name": "PE", "long_name": "Peru"}], "place_id": "ChIJm_Yc1E5iqJERjLV0F4ApErY", "formatted_address": "Chuquis, Peru"}], "status": "OK"}, {"results": [{"geometry": {"location": {"lng": -76.581879, "lat": -10.0340399}, "viewport": {"northeast": {"lng": -76.5658716, "lat": -10.0230524}, "southwest": {"lng": -76.5978864, "lat": -10.045027}}, "location_type": "APPROXIMATE"}, "types": ["locality", "political"], "address_components": [{"types": ["locality", "political"], "short_name": "Jes\u00fas District", "long_name": "Jes\u00fas District"}, {"types": ["administrative_area_level_2", "political"], "short_name": "Lauricocha Province", "long_name": "Lauricocha Province"}, {"types": ["administrative_area_level_1", "political"], "short_name": "Huanuco", "long_name": "Huanuco"}, {"types": ["country", "political"], "short_name": "PE", "long_name": "Peru"}], "place_id": "ChIJGe33klkMqJERevaJzmiOQUU", "formatted_address": "Jes\u00fas District, Peru"}], "status": "OK"}, {"results": [{"geometry": {"location": {"lng": -76.60127299999999, "lat": -10.10712}, "viewport": {"northeast": {"lng": -76.5852656, "lat": -10.096135}, "southwest": {"lng": -76.6172804, "lat": -10.1181046}}, "location_type": "APPROXIMATE"}, "types": ["locality", "political"], "address_components": [{"types": ["locality", "political"], "short_name": "San Miguel de Cauri District", "long_name": "San Miguel de Cauri District"}, {"types": ["administrative_area_level_2", "political"], "short_name": "Lauricocha Province", "long_name": "Lauricocha Province"}, {"types": ["administrative_area_level_1", "political"], "short_name": "Huanuco", "long_name": "Huanuco"}, {"types": ["country", "political"], "short_name": "PE", "long_name": "Peru"}], "place_id": "ChIJJYC2rlAOqJER06HK7rujxeY", "formatted_address": "San Miguel de Cauri District, Peru"}], "status": "OK"}, {"results": [{"geometry": {"location": {"lng": -75.3237262, "lat": -11.3625301}, "viewport": {"northeast": {"lng": -75.306816, "lat": -11.3425497}, "southwest": {"lng": -75.3490448, "lat": -11.374148}}, "bounds": {"northeast": {"lng": -75.306816, "lat": -11.3425497}, "southwest": {"lng": -75.3490448, "lat": -11.374148}}, "location_type": "APPROXIMATE"}, "types": ["locality", "political"], "address_components": [{"types": ["locality", "political"], "short_name": "Monobamba District", "long_name": "Monobamba District"}, {"types": ["administrative_area_level_2", "political"], "short_name": "Jauja Province", "long_name": "Jauja Province"}, {"types": ["administrative_area_level_1", "political"], "short_name": "Junin", "long_name": "Junin"}, {"types": ["country", "political"], "short_name": "PE", "long_name": "Peru"}], "place_id": "ChIJbXLj9EVBCZER3iEqr8y3dGM", "formatted_address": "Monobamba District, Peru"}], "status": "OK"}, {"results": [{"geometry": {"location": {"lng": -75.4179879, "lat": -10.5931441}, "viewport": {"northeast": {"lng": -75.40760089999999, "lat": -10.5749288}, "southwest": {"lng": -75.436937, "lat": -10.5997594}}, "bounds": {"northeast": {"lng": -75.40760089999999, "lat": -10.5749288}, "southwest": {"lng": -75.436937, "lat": -10.5997594}}, "location_type": "GEOMETRIC_CENTER"}, "types": ["route"], "address_components": [{"types": ["route"], "short_name": "Chontabamba", "long_name": "Chontabamba"}, {"types": ["locality", "political"], "short_name": "Oxapampa", "long_name": "Oxapampa"}, {"types": ["administrative_area_level_2", "political"], "short_name": "Oxapampa", "long_name": "Oxapampa"}, {"types": ["administrative_area_level_1", "political"], "short_name": "Pasco", "long_name": "Pasco"}, {"types": ["country", "political"], "short_name": "PE", "long_name": "Peru"}], "place_id": "ChIJaQm9mCjBCZERxn-sif03yzU", "formatted_address": "Chontabamba, Oxapampa, Peru"}], "status": "OK"}, {"results": [{"geometry": {"location": {"lng": -75.5235713, "lat": -10.4274987}, "viewport": {"northeast": {"lng": -75.5075639, "lat": -10.4165248}, "southwest": {"lng": -75.53957869999999, "lat": -10.4384722}}, "location_type": "APPROXIMATE"}, "types": ["locality", "political"], "address_components": [{"types": ["locality", "political"], "short_name": "Huancabamba District, Oxapampa", "long_name": "Huancabamba District, Oxapampa"}, {"types": ["administrative_area_level_2", "political"], "short_name": "Oxapampa Province", "long_name": "Oxapampa Province"}, {"types": ["administrative_area_level_1", "political"], "short_name": "Pasco", "long_name": "Pasco"}, {"types": ["country", "political"], "short_name": "PE", "long_name": "Peru"}], "place_id": "ChIJnU1M47DQCZER7wRPRkqdIaE", "formatted_address": "Huancabamba District, Oxapampa, Peru"}], "status": "OK"}, {"results": [{"geometry": {"location": {"lng": -75.40533669999999, "lat": -10.5852663}, "viewport": {"northeast": {"lng": -75.378914, "lat": -10.561819}, "southwest": {"lng": -75.4256058, "lat": -10.6078007}}, "bounds": {"northeast": {"lng": -75.378914, "lat": -10.561819}, "southwest": {"lng": -75.4256058, "lat": -10.6078007}}, "location_type": "APPROXIMATE"}, "types": ["locality", "political"], "address_components": [{"types": ["locality", "political"], "short_name": "Oxapampa", "long_name": "Oxapampa"}, {"types": ["administrative_area_level_2", "political"], "short_name": "Oxapampa Province", "long_name": "Oxapampa Province"}, {"types": ["administrative_area_level_1", "political"], "short_name": "Pasco", "long_name": "Pasco"}, {"types": ["country", "political"], "short_name": "PE", "long_name": "Peru"}], "place_id": "ChIJE8k16g3BCZERqj_CsykMXdE", "formatted_address": "Oxapampa, Peru"}], "status": "OK"}, {"results": [{"geometry": {"location": {"lng": -75.25301050000002, "lat": -9.9512982}, "viewport": {"northeast": {"lng": -75.2360059, "lat": -9.916181199999999}, "southwest": {"lng": -75.25797829999999, "lat": -9.9544794}}, "bounds": {"northeast": {"lng": -75.2360059, "lat": -9.916181199999999}, "southwest": {"lng": -75.25797829999999, "lat": -9.9544794}}, "location_type": "APPROXIMATE"}, "types": ["establishment", "natural_feature"], "address_components": [{"types": ["establishment", "natural_feature"], "short_name": "Rio Palcaz\u00fa", "long_name": "Rio Palcaz\u00fa"}, {"types": ["administrative_area_level_2", "political"], "short_name": "Oxapampa", "long_name": "Oxapampa"}, {"types": ["administrative_area_level_1", "political"], "short_name": "Pasco", "long_name": "Pasco"}, {"types": ["country", "political"], "short_name": "PE", "long_name": "Peru"}], "place_id": "ChIJuY91R1NHp5ERQtA64_Nub_I", "formatted_address": "Rio Palcaz\u00fa, Peru"}], "status": "OK"}, {"results": [{"geometry": {"location": {"lng": -75.55168789999999, "lat": -10.0680289}, "viewport": {"northeast": {"lng": -75.5495882, "lat": -10.0643188}, "southwest": {"lng": -75.55323609999999, "lat": -10.0749667}}, "bounds": {"northeast": {"lng": -75.5495882, "lat": -10.0643188}, "southwest": {"lng": -75.55323609999999, "lat": -10.0749667}}, "location_type": "APPROXIMATE"}, "types": ["locality", "political"], "address_components": [{"types": ["locality", "political"], "short_name": "Pozuzo", "long_name": "Pozuzo"}, {"types": ["administrative_area_level_2", "political"], "short_name": "Oxapampa Province", "long_name": "Oxapampa Province"}, {"types": ["administrative_area_level_1", "political"], "short_name": "Pasco", "long_name": "Pasco"}, {"types": ["country", "political"], "short_name": "PE", "long_name": "Peru"}], "place_id": "ChIJM83hJ8Zxp5ERBGbXDOZyqbw", "formatted_address": "Pozuzo, Peru"}], "status": "OK"}, {"results": [{"geometry": {"location": {"lng": -75.26832279999999, "lat": -10.7349995}, "viewport": {"northeast": {"lng": -75.2576351, "lat": -10.7142494}, "southwest": {"lng": -75.2869034, "lat": -10.7498364}}, "bounds": {"northeast": {"lng": -75.2576351, "lat": -10.7142494}, "southwest": {"lng": -75.2869034, "lat": -10.7498364}}, "location_type": "APPROXIMATE"}, "types": ["locality", "political"], "address_components": [{"types": ["locality", "political"], "short_name": "Villa Rica", "long_name": "Villa Rica"}, {"types": ["administrative_area_level_2", "political"], "short_name": "Oxapampa Province", "long_name": "Oxapampa Province"}, {"types": ["administrative_area_level_1", "political"], "short_name": "Pasco", "long_name": "Pasco"}, {"types": ["country", "political"], "short_name": "PE", "long_name": "Peru"}], "place_id": "ChIJ7xKW5pWWCZER-dO4ZXZV_Io", "formatted_address": "Villa Rica, Peru"}], "status": "OK"}, {"results": [{"geometry": {"location": {"lng": -76.2566078, "lat": -10.6831257}, "viewport": {"northeast": {"lng": -76.2552588197085, "lat": -10.6817767197085}, "southwest": {"lng": -76.25795678029151, "lat": -10.6844746802915}}, "location_type": "GEOMETRIC_CENTER"}, "types": ["bank", "establishment", "finance", "point_of_interest"], "address_components": [{"types": ["route"], "short_name": "Jiron Bolognesi", "long_name": "Jiron Bolognesi"}, {"types": ["locality", "political"], "short_name": "Cerro De Pasco", "long_name": "Cerro De Pasco"}, {"types": ["administrative_area_level_2", "political"], "short_name": "Pasco", "long_name": "Pasco"}, {"types": ["administrative_area_level_1", "political"], "short_name": "Pasco", "long_name": "Pasco"}, {"types": ["country", "political"], "short_name": "PE", "long_name": "Peru"}], "place_id": "ChIJO8B4oE9tCJERrMzcD7nodJc", "formatted_address": "Jiron Bolognesi, Cerro De Pasco, Peru"}, {"geometry": {"location": {"lng": -76.2540167, "lat": -10.6850405}, "viewport": {"northeast": {"lng": -76.25266771970848, "lat": -10.6836915197085}, "southwest": {"lng": -76.25536568029149, "lat": -10.6863894802915}}, "location_type": "GEOMETRIC_CENTER"}, "types": ["establishment", "point_of_interest", "police"], "address_components": [{"types": ["route"], "short_name": "Jiron Yauli", "long_name": "Jiron Yauli"}, {"types": ["locality", "political"], "short_name": "Cerro De Pasco", "long_name": "Cerro De Pasco"}, {"types": ["country", "political"], "short_name": "PE", "long_name": "Peru"}], "place_id": "ChIJgYOW-kVtCJERQFSoDT0LwvI", "formatted_address": "Jr. YAULI # 180, COSTADO DE COLISEO MUNICIPAL, Jiron Yauli, Cerro De Pasco, Peru"}], "status": "OK"}, {"results": [{"geometry": {"location": {"lng": -76.1639984, "lat": -10.5341505}, "viewport": {"northeast": {"lng": -76.1570583, "lat": -10.5289437}, "southwest": {"lng": -76.1673268, "lat": -10.5416693}}, "bounds": {"northeast": {"lng": -76.1570583, "lat": -10.5289437}, "southwest": {"lng": -76.1673268, "lat": -10.5416693}}, "location_type": "APPROXIMATE"}, "types": ["locality", "political"], "address_components": [{"types": ["locality", "political"], "short_name": "Ticlacay\u00e1n", "long_name": "Ticlacay\u00e1n"}, {"types": ["administrative_area_level_2", "political"], "short_name": "Pasco", "long_name": "Pasco"}, {"types": ["administrative_area_level_1", "political"], "short_name": "Pasco", "long_name": "Pasco"}, {"types": ["country", "political"], "short_name": "PE", "long_name": "Peru"}], "place_id": "ChIJy4ukpCcXCJER4A_e-7cahEA", "formatted_address": "Ticlacay\u00e1n, Peru"}], "status": "OK"}, {"results": [{"geometry": {"location": {"lng": -69.958889, "lat": -17.776389}, "viewport": {"northeast": {"lng": -69.94288159999999, "lat": -17.7657634}, "southwest": {"lng": -69.97489639999999, "lat": -17.7870139}}, "location_type": "APPROXIMATE"}, "types": ["locality", "political"], "address_components": [{"types": ["locality", "political"], "short_name": "Palca District", "long_name": "Palca District"}, {"types": ["administrative_area_level_2", "political"], "short_name": "Tacna", "long_name": "Tacna"}, {"types": ["administrative_area_level_1", "political"], "short_name": "Tacna", "long_name": "Tacna"}, {"types": ["country", "political"], "short_name": "PE", "long_name": "Peru"}], "place_id": "ChIJA2dDJobhWpERSO325MnU9tM", "formatted_address": "Palca District, Peru"}], "status": "OK"}, {"results": [{"partial_match": true, "address_components": [{"types": ["locality", "political"], "short_name": "Nanay", "long_name": "Nanay"}, {"types": ["administrative_area_level_2", "political"], "short_name": "Maynas", "long_name": "Maynas"}, {"types": ["administrative_area_level_1", "political"], "short_name": "Loreto", "long_name": "Loreto"}, {"types": ["country", "political"], "short_name": "PE", "long_name": "Peru"}], "place_id": "ChIJ-eLFpDXowZERkW5qRvpZvEI", "geometry": {"location": {"lng": -73.69708, "lat": -3.8884356}, "viewport": {"northeast": {"lng": -73.69573101970849, "lat": -3.887086619708498}, "southwest": {"lng": -73.69842898029151, "lat": -3.889784580291503}}, "location_type": "GEOMETRIC_CENTER"}, "types": ["establishment", "point_of_interest"], "formatted_address": "Distrito de alto, Nanay, Peru"}], "status": "OK"}, {"results": [{"geometry": {"location": {"lng": -73.25163260000001, "lat": -3.7436735}, "viewport": {"northeast": {"lng": -73.2362366, "lat": -3.7005039}, "southwest": {"lng": -73.3303928, "lat": -3.8053353}}, "bounds": {"northeast": {"lng": -73.2362366, "lat": -3.7005039}, "southwest": {"lng": -73.3303928, "lat": -3.8053353}}, "location_type": "APPROXIMATE"}, "types": ["locality", "political"], "address_components": [{"types": ["locality", "political"], "short_name": "Iquitos", "long_name": "Iquitos"}, {"types": ["administrative_area_level_2", "political"], "short_name": "Maynas Province", "long_name": "Maynas Province"}, {"types": ["administrative_area_level_1", "political"], "short_name": "Loreto", "long_name": "Loreto"}, {"types": ["country", "political"], "short_name": "PE", "long_name": "Peru"}], "place_id": "ChIJy8FA5LAQ6pERkmYKBNe4EJI", "formatted_address": "Iquitos, Peru"}], "status": "OK"}, {"results": [{"geometry": {"location": {"lng": -73.2483604, "lat": -3.7260518}, "viewport": {"northeast": {"lng": -73.2377815, "lat": -3.710268}, "southwest": {"lng": -73.2635308, "lat": -3.7398171}}, "bounds": {"northeast": {"lng": -73.2377815, "lat": -3.710268}, "southwest": {"lng": -73.2635308, "lat": -3.7398171}}, "location_type": "APPROXIMATE"}, "types": ["neighborhood", "political"], "address_components": [{"types": ["neighborhood", "political"], "short_name": "Punchana", "long_name": "Punchana"}, {"types": ["political", "sublocality", "sublocality_level_1"], "short_name": "Pampachica", "long_name": "Pampachica"}, {"types": ["locality", "political"], "short_name": "Iquitos", "long_name": "Iquitos"}, {"types": ["administrative_area_level_2", "political"], "short_name": "Maynas Province", "long_name": "Maynas Province"}, {"types": ["administrative_area_level_1", "political"], "short_name": "Loreto", "long_name": "Loreto"}, {"types": ["country", "political"], "short_name": "PE", "long_name": "Peru"}], "place_id": "ChIJ8waZt5Ua6pERvOh3q0-_fk8", "formatted_address": "Punchana, Iquitos, Peru"}], "status": "OK"}]